Year,Mo,Dy,Hr,Mn,Sec,Tsunami Event Validity,Tsunami Cause Code,Tsu Src,Earthquake Magnitude,Vol,More Info,Doubtful Runup,Country,Area,Location Name,Latitude,Longitude,Distance From Source (km),Initial Wave Arrival Dy,Initial Wave Arrival Hr,Initial Wave Arrival Min,Travel Hours,Travel Minutes,Max Wave Arrival Day,Max Wave Arrival Hr,Max Wave Arrival Min,Max Water Height (m),Max Inundation Distance (m),Measurement Type,Period,First Motion,Deaths,Death Description,Missing,Missing Description,Injuries,Injuries Description,Damage $Mil,Damage Description,Houses Destroyed,Houses Destroyed Description,Houses Damaged,Houses Damaged Description
1900,5,16,20,12,,3,1,5897,6.9,,,n,MEXICO,JALISCO,PUERTO VALLARTA,20.622,-105.232,72.99902537,,,,,,,,,,,1,,,,1,,,,,,,,,,
1900,5,16,20,12,,3,1,5897,6.9,,,n,MEXICO,,"EL ZAPOTILLO, TEPIC",21.52,-105.25,170.2869037,,,,,,,,,,,1,,,,1,,,,,,,,,,
1900,9,10,21,30,,4,1,1272,6.8,,,n,PAPUA NEW GUINEA,EAST NEW BRITAIN,"RABAUL, NEW BRITAIN",-4.22,152.18,31.48467026,,,,,,,,,,,1,,,,,,,,,,,,,,
1900,9,10,21,30,,4,1,1272,6.8,,,n,PAPUA NEW GUINEA,EAST NEW BRITAIN,"RALUM, NEW BRITAIN",-4.325,152.24,44.73949179,,,,,,,,,,,1,,,,,,,,,,,,,,
1900,9,10,21,30,,4,1,1272,6.8,,,n,PAPUA NEW GUINEA,EAST NEW BRITAIN,"REPERSTSHOH (KOKOPO?), NEW BRITAIN",,,,,,,,,,,,,,1,,,,,,,,,,,,,,
1900,9,17,21,45,,3,1,1274,7.1,,,n,PAPUA NEW GUINEA,EAST NEW BRITAIN,"RABAUL (BLANCHE BAY), NEW BRITAIN",-4.22,152.18,471.7677561,,,,,,,,,3,,1,,,,,,,,,,,,,,
1900,10,7,21,4,,3,1,1275,6.9,,,n,INDONESIA,PAPUA,NAPAN,-3.05,135.75,483.756565,,,,,,,,,,,1,,,5,1,,,,,,1,1,1,,
1900,10,7,21,4,,3,1,1275,6.9,,,n,PALAU,,TOBI ISLAND,3.00611,131.123889,1255.068497,,,,,,,,,,,1,,,,,,,,,,1,,,,
1900,10,7,21,4,,3,1,1275,6.9,,,n,INDONESIA,WEST PAPUA,WANDAMMEN BAY,-2.85,134.5,624.2493233,,,,,,,,,,,1,,,,,,,,,,,,,,
1900,10,7,21,4,,3,1,1275,6.9,,,n,INDONESIA,WEST PAPUA,WINDESSI,-2.4167,134.2167,666.1876099,,,,,,,,,,,1,,,,,,,,,,,,,,
1900,10,29,9,11,,3,1,1276,7.7,,,n,VENEZUELA,,PUERTO TUY,10.333,-65.917,74.33517699,,,,,,,,,10,,1,,,,,,,,,,,,,,
1900,10,29,9,11,,3,1,1276,7.7,,,n,VENEZUELA,,MACUTO,10.617,-66.883,105.4470926,,,,,,,,,,,1,,,,,,,,,,,,,,
1900,10,29,9,11,,3,1,1276,7.7,,,n,VENEZUELA,,PAPARO,10.383,-65.983,68.27325543,,,,,,,,,4,,1,,,,,,,,,,1,,1,,
1900,10,29,9,11,,3,1,1276,7.7,,,n,VENEZUELA,,SAN JOSE DE RIO CHICO,10.3,-65.983,77.45089393,,,,,,,,,5,,1,,,,,,,,,,,,,,
1900,10,29,9,11,,3,1,1276,7.7,,,n,VENEZUELA,,"RIO NEVERI, BARCELONA",10.165,-64.7,169.6197282,,,,,,,,,3,,5,,,,,,,,,,,,,,
1901,3,3,7,45,,3,3,1277,6.7,,,n,USA,CA,"MONTEREY, CA",36.605,-121.888,141.5918898,,,,,,,,,,,1,,,,,,,,,,,,,,
1901,3,31,7,12,,3,1,3725,7.2,,,n,BULGARIA,,BALCHIK,43.4038,28.1666,27.01118272,,,,,,,,,3,,1,,,,,,,,,,,,,,
1901,6,24,,,,4,1,1279,7.5,,,n,JAPAN,KAGOSHIMA,AMAMI OSHIMA RYUKY,29.25,129.45,161.5578384,,,,,,,,,,,1,,,,,,,,,,,,,,
1901,6,24,,,,4,1,1279,7.5,,,n,JAPAN,MIYAZAKI,HOSOSHIMA,32.433,131.667,508.7270811,,,,,,,,,0.25,,1,,,,,,,,,,,,,,
1901,6,24,,,,4,1,1279,7.5,,,n,JAPAN,OKINAWA,"NAZE, OKINAWA PREFECTURE",26,126,480.8472485,,,,,,,,,,,1,,,,,,,,,,1,,,,
1901,6,24,,,,4,1,1279,7.5,,,n,JAPAN,MIYAZAKI,ABURATSU,31.582,131.405,411.175373,,,,,,,,,,,1,,,,,,,,,,,,,,
1901,8,9,9,23,30,4,1,1281,7.2,,,n,JAPAN,MIYAGI,AYUKAWA,38.3,141.5,258.9887792,9,9,50,0,27,,,,0.23,,2,,,,,,,,,,,,,,
1901,8,9,9,23,30,4,1,1281,7.2,,,n,JAPAN,IWATE,MIYAKO,39.65,141.983,104.1749887,,,,,,,,,0.6,,2,,,,,,,,,,,,,,
1901,8,9,9,23,30,4,1,1281,7.2,,,n,JAPAN,HOKKAIDO,NEMUROKO,43.35,145.583,406.8793762,,,,,,,,,0.04,,2,,,,,,,,,,,,,,
1901,8,9,13,1,,4,1,1280,7.9,5064,,n,USA,HI,"HONOLULU, OAHU, HI",21.3067,-157.867,5927.246168,9,22,,9,,,,,0.12,,2,,,,,,,,,,,,,,
1901,8,9,13,1,,4,1,1280,7.9,5064,,n,USA,HI,"HONUAPO, HAWAII, HI",19.087,-155.553,5892.041848,,,,,,,,,,,1,,,,,,,,,,,,,,
1901,8,9,13,1,,4,1,1280,7.9,5064,,n,USA,HI,"HOOKENA, HAWAII, HI",19.38,-155.9,5892.647849,,,,,,,,,,,1,,,,,,,,,,,,,,
1901,8,9,13,1,,4,1,1280,7.9,5064,,n,USA,HI,"HOOPULOA, HAWAII, HI",19.2,-155.9,5877.552317,,,,,,,,,1.2,,1,,,,,,,,,,,,,,
1901,8,9,13,1,,4,1,1280,7.9,5064,,n,USA,HI,"KAILUA-KONA, HAWAII, HI",19.63,-155.99,5907.511422,9,21,30,8,30,,,,1.2,,1,,,,,,,,,,1,,1,,1
1901,8,9,13,1,,4,1,1280,7.9,5064,,n,USA,HI,"KEAUHOU, HAWAII, HI",19.57,-155.95,5905.190596,,,,,,,,,0.9,,1,,,,,,,,,,1,2,1,,
1901,8,9,13,1,,4,1,1280,7.9,5064,,n,USA,HI,"MAHUKONA, HAWAII, HI",20.186,-155.906,5960.082414,,,,,,,,,,,1,,,,,,,,,,1,1,1,,
1901,8,9,13,1,,4,1,1280,7.9,5064,,n,USA,HI,"NAPOOPOO, HAWAII, HI",19.477,-155.922,5899.286564,,,,,,,,,,,1,,,,,,,,,,,,,,
1901,8,9,13,1,,4,1,1280,7.9,5064,,n,SOLOMON ISLANDS,,SANTA CRUZ ISLANDS,-10.75,165.92,1318.791159,,,,,,,,,,,1,,,,1,,,,,,,,,,
1901,8,9,13,1,,4,1,1280,7.9,5064,,n,VANUATU,,VANUATU ISLANDS,,,,,,,,,,,,,,1,,,,,,,,,,2,,,,
1901,8,9,18,33,45,4,1,1282,7.4,,,n,JAPAN,MIYAGI,AYUKAWA,38.3,141.5,264.4733398,9,18,58,0,25,,,,0.25,,2,,,,,,,,,,,,,,
1901,8,9,18,33,45,4,1,1282,7.4,,,n,JAPAN,HOKKAIDO,NEMUROKO,43.35,145.583,409.0029246,,,,,,,,,0.02,,2,,,,,,,,,,,,,,
1901,8,9,20,0,,4,1,1283,6.3,,,n,JAPAN,HOKKAIDO,NEMUROKO,43.35,145.583,406.8793762,,,,,,,,,0.02,,2,,,,,,,,,,,,,,
1901,9,10,0,30,,2,1,1284,7,,,n,PHILIPPINES,,CALAUG,13.958,122.288,74.47920515,,,,,,,,,,,1,,,,,,,,,,,,,,
1901,10,8,2,16,,3,1,5162,7,,,n,NICARAGUA,,SAN JUAN DEL SUR,11.25,-85.867,74.47423097,,,,,,,,,1.5,,1,,,,,,,,,,,,,,
1901,12,31,9,2,30,1,1,1286,7.1,,,n,USA,AK,"KENAI, AK",60.55,-151.25,1585.388749,,,,,,,,,,,1,,,,,,,,,,,,,,
1902,2,26,,,,3,1,1287,7,,,y,USA,CA,"SAN DIEGO, CA",32.715,-117.174,3524.760252,,,,,,,,,,,1,,,,,,,,,,,,,,
1902,2,26,,,,3,1,1287,7,,,n,EL SALVADOR,,BARRA DE SANTIAGO,13.6934,-90.0126,59.45692859,,,,,,,,,,,1,,,100,2,,,100,2,,3,,,,
1902,2,26,,,,3,1,1287,7,,,n,EL SALVADOR,,BARRA DEL PAS,,,,,,,,,,,,,,1,,,85,2,,,,,,,,,,
1902,2,26,,,,3,1,1287,7,,,n,EL SALVADOR,SONSONATE,ACAJUTLA,13.567,-89.833,36.80095528,,,,,,,,,,,1,,,,,,,,,,,,,,
1902,7,5,14,56,30,3,1,1289,6.6,,,n,GREECE,,THESSALONIKI,40.633,22.933,29.77866309,,,,,,,,,,,1,,,,,,,,,,,,,,
1902,8,21,11,17,,1,1,1290,7.3,,,n,PHILIPPINES,,ILLANA BAY,7.77,123.45,30.36572265,,,,,,,,,,,1,,,,,,,,,,,,,,
1903,3,30,,,,2,1,1294,6.5,,,n,INDONESIA,MALUKU,TIFU,-3.717,126.383,147.2905866,,,,,,,,,1,,1,,,,,,,,,,,,,,
1903,3,30,,,,2,1,1294,6.5,,,n,INDONESIA,MALUKU,MASARETE,-3.6,126.267,152.2470877,,,,,,,,,1,,1,,,,,,,,,,,,,,
1903,12,7,14,25,,3,1,1307,6.5,,,n,CHILE,ATACAMA,HUASCO,-28.467,-71.22,21.85050166,,,,,,,,,,,1,,,,,,,,,,,,,,
1904,1,20,14,52,6,1,1,1308,7.9,,,n,MEXICO,,NE OF ISLA SAN BENEDICTO,20,-110,3641.475806,,,,,,,,,,,1,,,,,,,,,,,,,,
1904,6,25,14,45,36,4,1,1312,8.3,,,n,RUSSIA,KAMCHATKA,"AVACHA BAY, KAMCHATKA",52.97,158.5,113.1557646,,,,,,,,,,,,,,,,,,,,,,,,,
1904,12,20,5,44,18,2,1,5573,7.2,,,n,PANAMA,,BOCAS DEL TORO,9.333,-82.25,62.19655095,,,,,,,,,,,1,,,,,,,,,,,,,,
1905,1,20,18,23,,3,1,5587,6.8,,,n,COSTA RICA,,COCOS ISLAND,5.5,-87.08,549.1102312,,,,,,,,,,,1,,,,,,,,,,,,,,
1905,4,4,0,50,,0,1,1322,7.8,,,n,INDIA,HIMACHAL PRADESH,KANGRA AREA,,,,,,,,,,,,,,,,,,,,,,,,,,,,
1905,7,6,16,21,0,3,1,1324,7,,,n,JAPAN,NAGASAKI,NAGASAKIURA,35.7,140.9,242.3835681,,,,,,,,,,,1,,,57,2,,,,,,,,,,
1905,10,4,22,29,,4,1,2296,5.1,,,n,RUSSIA,,ANAPA,44.899,37.315,46.70074265,,,,,,,,,,,1,,,,,,,,,,,,,,
1905,11,8,22,6,11.8,3,3,5744,7.2,,,n,GREECE,,"PERDIKI, MT. ATHOS",40.13049,24.340209,24.82109886,,,,,,,,,3,,1,,,5,1,,,,,,,,,,
1905,12,8,8,22,,1,1,1328,6.5,,,n,PHILIPPINES,,TAGBILARAN,9.648,123.856,154.5443162,,,,,,,,,,,1,,,,,,,,,,,,,,
1906,1,31,15,36,10,4,1,1331,8.8,,,n,USA,CA,"SAN DIEGO, CA",32.715,-117.174,5291.860001,,,,,,,,,0.05,,2,,,,,,,,,,,,,,
1906,1,31,15,36,10,4,1,1331,8.8,,,n,USA,CA,"SAN FRANCISCO, CA",37.807,-122.465,6003.448879,,,,,,,,,0.06,,2,,,,,,,,,,,,,,
1906,1,31,15,36,10,4,1,1331,8.8,,,n,COLOMBIA,NARINO,PINDO ISLAND,1.783,-78.85,108.2519639,,,,,,,,,,,1,,,,,,,,,,,,,,
1906,1,31,15,36,10,4,1,1331,8.8,,,n,COLOMBIA,CAUCA,GUAPI,2.56667,-77.88333,243.0711962,31,16,17,0,42,,,,1,,1,,,,,,,,,,1,49,1,49,1
1906,1,31,15,36,10,4,1,1331,8.8,,,n,COLOMBIA,NARINO,TUMACO,1.833,-78.733,120.1455045,31,16,5,0,30,,,,5,,1,,,,,,,,,,1,,2,,2
1906,1,31,15,36,10,4,1,1331,8.8,,,n,USA,HI,"HILO, HAWAII, HI",19.7303,-155.0553,8481.810957,1,4,5,12,30,,,,1.8,,2,30,F,,,,,,,,,,,,
1906,1,31,15,36,10,4,1,1331,8.8,,,n,USA,HI,"HONOLULU, OAHU, HI",21.3067,-157.867,8785.372048,1,3,17,11,42,,,,0.13,,2,23,,,,,,,,,,,,,
1906,1,31,15,36,10,4,1,1331,8.8,,,n,USA,HI,"KAHULUI, MAUI, HI",20.895,-156.477,8638.475871,,,,,,,,,0.3,,2,20,,,,,,,,,,,,,
1906,1,31,15,36,10,4,1,1331,8.8,,,n,JAPAN,MIYAGI,AYUKAWA,38.3,141.5,13984.51575,1,11,23,19,48,,,,0.18,,2,,,,,,,,,,,,,,
1906,1,31,15,36,10,4,1,1331,8.8,,,n,JAPAN,HOKKAIDO,HAKODATE,41.7187,140.7247,13803.66959,1,10,59,19,24,,,,0.17,,2,,,,,,,,,,,,,,
1906,1,31,15,36,10,4,1,1331,8.8,,,n,JAPAN,MIYAZAKI,HOSOSHIMA,32.433,131.667,15086.70639,1,11,53,20,18,,,,0.15,,2,,,,,,,,,,,,,,
1906,1,31,15,36,10,4,1,1331,8.8,,,n,JAPAN,WAKAYAMA,KUSHIMOTO,33.467,135.783,14720.95704,1,12,2,20,27,,,,0.24,,2,,,,,,,,,,,,,,
1906,1,31,15,36,10,4,1,1331,8.8,,,n,MEXICO,,WEST COAST,,,,,,,,,,,,,,1,,,,,,,,,,,,,,
1906,1,31,15,36,10,4,1,1331,8.8,,,n,COLOMBIA,NARINO,CABALLOS,2.46,-78.55,189.7327685,,,,,,,,,,,1,,,8,1,,,,,,1,,,,
1906,1,31,15,36,10,4,1,1331,8.8,,,n,COLOMBIA,NARINO,TRUJILLO,1.78,-78.62,123.5708861,,,,,,,,,,,1,,,,,,,,,,1,,,,
1906,1,31,15,36,10,4,1,1331,8.8,,,n,COLOMBIA,CAUCA,BOCA GRANDE,3.037,-77.564,305.4850444,,,,,,,,,,,1,,,,,,,,,,1,,,,
1906,1,31,15,36,10,4,1,1331,8.8,,,n,COLOMBIA,NARINO,EL BAJITO,1.81,-78.81,113.1727563,,,,,,,,,,,1,,,,,,,,,,1,,,,
1906,1,31,15,36,10,4,1,1331,8.8,,,n,COLOMBIA,NARINO,CHILBI,1.659,-78.747,104.1707179,,,,,,,,,,,1,,,,,,,,,,1,,,,
1906,1,31,15,36,10,4,1,1331,8.8,,,n,COLOMBIA,NARINO,SALAHONDA AND MORRO-O-SALAHONDA,2.04,-78.658,143.7141022,,,,,,,,,,,1,,,4,1,,,,,,1,,,,
1906,1,31,15,36,10,4,1,1331,8.8,,,n,COLOMBIA,NARINO,HOJAS BLANCAS,2.1258,-78.6718,150.9282035,,,,,,,,,,,1,,,10,1,,,,,,1,,,,
1906,1,31,15,36,10,4,1,1331,8.8,,,n,COLOMBIA,NARINO,SAN IGNACIO,2.2374,-78.6836,161.0105965,,,,,,,,,,,1,,,22,1,,,,,,,,,,
1906,1,31,15,36,10,4,1,1331,8.8,,,n,COLOMBIA,NARINO,SAN JUAN,2.333,-78.6,174.7548425,,,,,,,,,,,1,,,149,3,,,,,,,,,,
1906,1,31,15,36,10,4,1,1331,8.8,,,n,COLOMBIA,NARINO,CABO MANGLARES,1.65,-79,87.13366019,,,,,,,,,,,1,,,,,,,,,,,,,,
1906,1,31,15,36,10,4,1,1331,8.8,,,n,COLOMBIA,NARINO,PUNTA GUASCAMA,2.649,-78.4,216.1254291,,,,,,,,,,,1,,,11,1,,,,,,1,,,,
1906,1,31,15,36,10,4,1,1331,8.8,,,n,COLOMBIA,CAUCA,TIMBIQUI,2.766,-77.634,278.1395847,,,,,,,,,,,1,,,53,2,,,,,,1,,,,
1906,1,31,15,36,10,4,1,1331,8.8,,,n,COLOMBIA,NARINO,SANQUIANGA,2.65,-78.33,220.208121,,,,,,,,,,,1,,,12,1,,,,,,2,397,2,397,2
1906,1,31,15,36,10,4,1,1331,8.8,,,n,COLOMBIA,NARINO,MULATOS,2.65,-78.3,221.9785156,,,,,,,,,,,1,,,64,2,,,,,,1,,,,
1906,1,31,15,36,10,4,1,1331,8.8,,,n,COLOMBIA,NARINO,AMARALES,2.66,-78.245,226.236977,,,,,,,,,,,1,,,83,2,,,,,,1,,,,
1906,1,31,15,36,10,4,1,1331,8.8,,,n,COLOMBIA,NARINO,BOQUERONES,2.67102,-78.18777,230.818389,,,,,,,,,,,1,,,48,1,,,,,,1,,,,
1906,1,31,15,36,10,4,1,1331,8.8,,,n,COLOMBIA,CAUCA,LA CANDELARIA,3.052,-77.61,303.4110031,,,,,,,,,,,1,,,,,,,,,,1,,,,
1906,1,31,15,36,10,4,1,1331,8.8,,,n,COLOMBIA,NARINO,EL COCO,2.53,-78.33,209.0328118,,,,,,,,,,,1,,,,,,,,,,1,,,,
1906,1,31,15,36,10,4,1,1331,8.8,,,n,COLOMBIA,CAUCA,MICAY,3.05,-77.55,307.5915753,,,,,,,,,,,1,,,100,2,,,,,,1,,,,
1906,1,31,15,36,10,4,1,1331,8.8,,,n,COLOMBIA,CAUCA,CUERVAL,2.7317,-77.7917,263.4236433,,,,,,,,,,,1,,,,,,,,,,1,,,,
1906,1,31,15,36,10,4,1,1331,8.8,,,n,COLOMBIA,CAUCA,QUIROGA,2.614,-77.819,251.7797364,,,,,,,,,,,1,,,32,1,,,,,,1,,,,
1906,1,31,15,36,10,4,1,1331,8.8,,,n,COLOMBIA,NARINO,CANSARA,,,,,,,,,,,,,,1,,,2,1,,,,,,1,,,,
1906,1,31,15,36,10,4,1,1331,8.8,,,n,COLOMBIA,NARINO,MOSQUERA,2.497,-78.44,199.3922034,,,,,,,,,,,1,,,2,1,,,,,,1,,,,
1906,1,31,15,36,10,4,1,1331,8.8,,,n,COLOMBIA,NARINO,VARELA,,,,,,,,,,,,,,1,,,9,1,,,,,,1,,,,
1906,1,31,15,36,10,4,1,1331,8.8,,,n,COLOMBIA,VALLE DEL CAUCA,BUENAVENTURA,3.886,-77.07,412.8040325,,,,,,,,,,,1,,,,,,,,,,1,,,,
1906,1,31,15,36,10,4,1,1331,8.8,,,n,ECUADOR,ESMERALDAS,ESMERALDAS,0.95,-79.6666,33.12874702,,,,,,,,,,,1,,,,,,,,,,,,,,
1906,1,31,15,36,10,4,1,1331,8.8,,,n,ECUADOR,MANABI,BAHIA CARAQUEZ,-0.61,-80.43,209.5110737,,,,,,,,,0.8,,1,,,,,,,,,,1,,,,
1906,1,31,15,36,10,4,1,1331,8.8,,,n,ECUADOR,GUAYAS,GUAYAQUIL,-2.1833,-79.8833,351.7058784,,,,,,,,,,,1,,,,,,,,,,,,,,
1906,1,31,15,36,10,4,1,1331,8.8,,,n,PANAMA,,PANAMA,8.967,-79.533,886.1882649,,,,,,,,,,,1,,,,,,,,,,,,,,
1906,1,31,15,36,10,4,1,1331,8.8,,,n,PANAMA,,"NAOS IS, CANAL ZONE, PACIFIC COAST",8.915,-79.532,880.4359632,,,,,,,,,0.7,,2,60,R,,,,,,,,,,,,
1906,1,31,15,36,10,4,1,1331,8.8,,,n,COSTA RICA,,POTRERO BAY,10.444974,-85.774151,1266.343558,,,,,,,,,,,1,,F,,,,,,,,,,,,
1906,1,31,15,36,10,4,1,1331,8.8,,,n,COLOMBIA,,N ATLANTIC COAST OF COLOMBIA,,,,,,,,,,,,,,7,,,,,,,,,,,,,,
1906,1,31,15,36,10,4,1,1331,8.8,,,n,JAPAN,NAGASAKI,NAGASAKI,32.733,129.867,15185.27698,1,13,8,21,33,,,,0.14,,2,,,,,,,,,,,,,,
1906,1,31,15,36,10,4,1,1331,8.8,,,n,JAPAN,NAGASAKI,FUKAHORI,32.683,129.817,15192.51394,,,,,,,,,0.28,,2,,,,,,,,,,,,,,
1906,1,31,15,36,10,4,1,1331,8.8,,,n,PANAMA,,SAN CARLOS,8.4833,-79.95,834.9928456,,,,,,,,,,,1,,,,,,,,,,,,,,
1906,1,31,15,36,10,4,1,1331,8.8,,,n,COLOMBIA,NARINO,BARBACOAS,1.65,-78.16,154.9500759,,,,,,,,,,,1,,,,,,,,,,1,30,1,,
1906,1,31,15,36,10,4,1,1331,8.8,,,n,COLOMBIA,NARINO,LA TOLA,2.58,-78.23,219.8792545,,,,,,,,,,,1,,,,,,,,,,1,23,1,23,1
1906,1,31,15,36,10,4,1,1331,8.8,,,n,ECUADOR,SANTA ELENA,RIO VERDE,-2.317,-80.7,390.9524912,,,,,,,,,,,1,,,,,,,,,,2,,,,
1906,1,31,15,36,10,4,1,1331,8.8,,,n,COLOMBIA,NARINO,DOMINGO ORTIZ,2.63,-78.09,233.5688875,,,,,,,,,,,1,,,,,,,,,,,,,,
1906,1,31,15,36,10,4,1,1331,8.8,,,n,COLOMBIA,NARINO,EL PINAL,,,,,,,,,,,,,,1,,,,,,,,,,,,,,
1906,1,31,15,36,10,4,1,1331,8.8,,,n,NEW ZEALAND,GISBORNE,GISBORNE,-38.6754,178.023,11172.46616,1,18,0,26,25,,,,0.6,,2,,,,,,,,,,,,,,
1906,1,31,15,36,10,4,1,1331,8.8,,,n,EL SALVADOR,,LOS NEGROS,13.254,-88.83,1714.098057,,,,,,,,,,,1,,,,,,,,,,,,,,
1906,1,31,15,36,10,4,1,1331,8.8,,,n,COSTA RICA,,BARRANCA (HACIENDA EL PORVENIR),9.967116,-84.738587,1160.422163,,,,,,,,,,,1,,,,,,,,,,,,,,
1906,1,31,15,36,10,4,1,1331,8.8,,,n,COSTA RICA,,BOCA BARRANCA,9.960522,-84.737364,1159.728594,,,,,,,,,,,1,,,,,,,,,,,,,,
1906,1,31,15,36,10,4,1,1331,8.8,,,n,COSTA RICA,,TARCOLES,9.785159,-84.643198,1137.786778,,,,,,,,,,,1,,,,,,,,,,,,,,
1906,1,31,15,36,10,4,1,1331,8.8,,,y,CANADA,BC,"PORT SIMPSON, BRITISH COLUMBIA",54.56,-130.43,7529.253364,,,,,,,,,,,2,,,,,,,,,,,,,,
1906,4,18,13,12,0,4,3,1333,7.9,,,n,USA,CA,"NAVARRO RIVER, CA",39.18,-123.67,193.4488268,,,,,,,,,,,1,,,,,,,,,,,,,,
1906,4,18,13,12,0,4,3,1333,7.9,,,n,USA,CA,"SAN FRANCISCO, CA",37.807,-122.465,12.27011949,18,13,21,0,9,,,,0.1,,2,16,F,,,,,,,,,,,,
1906,4,18,13,12,0,4,3,1333,7.9,,,n,USA,CA,"BOLINAS, CA",37.893333,-122.666111,25.97131028,,,,,,,,,,,2,40,,,,,,,,,,,,,
1906,8,17,0,40,,3,1,1339,8.2,,,n,USA,CA,"SAN DIEGO, CA",32.715,-117.174,8680.449928,17,14,10,13,30,,,,0.06,,2,22,,,,,,,,,,,,,
1906,8,17,0,40,,3,1,1339,8.2,,,n,USA,CA,"SAN FRANCISCO, CA",37.807,-122.465,9422.214671,17,15,40,15,0,,,,0.04,,2,28,,,,,,,,,,,,,
1906,8,17,0,40,,3,1,1339,8.2,,,n,CHILE,ATACAMA,CALDERA,-27.067,-70.833,667.2395119,,,,,,,,,,,1,,,,,,,,,,,,,,
1906,8,17,0,40,,3,1,1339,8.2,,,n,CHILE,MAULE,CONSTITUCION,-35.333,-72.417,261.6288169,,,,,,,,,,,1,,,,,,,,,,,,,,
1906,8,17,0,40,,3,1,1339,8.2,,,n,CHILE,COQUIMBO,COQUIMBO,-29.95,-71.3353,344.0227207,,,,,,,,,,,1,,,,,,,,,,,,,,
1906,8,17,0,40,,3,1,1339,8.2,,,n,CHILE,BIOBIO,CORONEL,-37.02,-73.15,458.1566148,,,,,,,,,,,1,,,,,,,,,,,,,,
1906,8,17,0,40,,3,1,1339,8.2,,,n,CHILE,VALPARAISO,CURAUMILLA CAPE,-33.09,-71.73,27.12295944,,,,,,,,,,,1,,,,,,,,,,,,,,
1906,8,17,0,40,,3,1,1339,8.2,,,n,CHILE,MAULE,CURICO PROVINCE,,,,,,,,,,,,1,,1,,,,,,,,,,,,,,
1906,8,17,0,40,,3,1,1339,8.2,,,n,CHILE,TARAPACA,IQUIQUE,-20.217,-70.156,1428.129908,,,,,,,,,,,1,,,,,,,,,,,,,,
1906,8,17,0,40,,3,1,1339,8.2,,,n,CHILE,MAULE,MAULE PROVINCE,,,,,,,,,,,,1,,1,,,,,,,,,,,,,,
1906,8,17,0,40,,3,1,1339,8.2,,,n,CHILE,BIOBIO,PENCO,-36.733,-72.983,423.765767,17,0,55,0,15,,,,1.5,,1,,,,,,,,,,,,,,
1906,8,17,0,40,,3,1,1339,8.2,,,n,CHILE,VALPARAISO,SAN ANTONIO,-33.593333,-71.621667,74.646825,,,,,,,,,,,1,,,,,,,,,,,,,,
1906,8,17,0,40,,3,1,1339,8.2,,,n,CHILE,MAULE,TALCA PROVINCE,,,,,,,,,,,,1,,1,,,,,,,,,,,,,,
1906,8,17,0,40,,3,1,1339,8.2,,,n,CHILE,ANTOFAGASTA,TALTAL,-25.4081,-70.4917,854.1381783,,,,,,,,,,,1,,,,,,,,,,,,,,
1906,8,17,0,40,,3,1,1339,8.2,,,n,CHILE,BIOBIO,TOME,-36.617,-72.95,410.5597179,17,0,55,0,15,,,,1.5,,2,,,,,,,,,,,,,,
1906,8,17,0,40,,3,1,1339,8.2,,,n,CHILE,VALPARAISO,VALPARAISO,-33.033,-71.633,34.48568049,,,,,,,,,,,1,,,,,,,,,,,,,,
1906,8,17,0,40,,3,1,1339,8.2,,,n,USA,HI,"HILO, HAWAII, HI",19.733,-155.067,10567.22999,17,17,22,16,42,,,,1.5,,1,,,,,,,,,,,,,,
1906,8,17,0,40,,3,1,1339,8.2,,,n,USA,HI,"HONOLULU, OAHU, HI",21.3067,-157.867,10907.09894,17,15,45,15,6,,,,0.1,,2,25,,,,,,,,,,,,,
1906,8,17,0,40,,3,1,1339,8.2,,,n,USA,HI,"KAHULUI, MAUI, HI",20.898,-156.472,10760.47966,,,,,,,,,,,1,,,,,,,,,,1,,,,
1906,8,17,0,40,,3,1,1339,8.2,,,n,USA,HI,"KAILUA, HAWAII, HI",19.64,-156,10643.6504,,,,,,,,,,,1,,,,,,,,,,1,,,,
1906,8,17,0,40,,3,1,1339,8.2,,,n,USA,HI,"MAALAEA, MAUI, HI",20.8,-156.51,10757.95964,,,,,,,,,3.5,,1,,,,,,,,,,1,,,,
1906,8,17,0,40,,3,1,1339,8.2,,,n,USA,HI,"MCGREGOR'S LANDING, MAUI, HI",20.78,-156.53,10758.51941,,,,,,,,,,,1,,,,,,,,,,1,,,,
1906,8,17,0,40,,3,1,1339,8.2,,,n,JAPAN,KANAGAWA,ABURATSUBO,35.167,139.617,17110.57268,,,,,,,,,0.08,,2,,,,,,,,,,,,,,
1906,8,17,0,40,,3,1,1339,8.2,,,n,JAPAN,MIYAGI,AYUKAWA,38.3,141.5,16951.8633,18,1,,24,,,,,0.09,,2,,,,,,,,,,,,,,
1906,8,17,0,40,,3,1,1339,8.2,,,n,JAPAN,HOKKAIDO,HAKODATE,41.7187,140.7247,16987.38185,,,,,,,,,0.12,,2,,,,,,,,,,,,,,
1906,8,17,0,40,,3,1,1339,8.2,,,n,JAPAN,WAKAYAMA,KUSHIMOTO,33.467,135.783,17444.72883,18,0,28,23,48,,,,0.17,,2,,,,,,,,,,,,,,
1906,8,17,0,40,,3,1,1339,8.2,,,n,JAPAN,WAKAYAMA,MISAKI,35.66,139.55,17120.16086,18,1,,24,,,,,,,2,,,,,,,,,,,,,,
1906,8,17,0,40,,3,1,1339,8.2,,,n,FRENCH POLYNESIA,MARQUESAS ISLANDS,"NUKU HIVA ISLAND, MARQUESAS ISLANDS",-8.933,-140.083,7434.753812,,,,,,,,,,,1,,,,,,,,,,1,,,1,1
1906,8,17,0,40,,3,1,1339,8.2,,,n,USA,AK,"PORT CHATHAM, KENAI, AK",59.22,-151.73,12548.64196,17,19,11,,,,,,0.21,,1,26,,,,,,,,,,,,,
1906,8,17,0,40,,3,1,1339,8.2,,,n,CHILE,VALPARAISO (JUAN FERNANDEZ),JUAN FERNANDEZ ISLANDS ,-33.6217,-78.833,639.9219231,,,,,,,,,,,1,,,,,,,,,,1,,,,
1906,8,17,0,40,,3,1,1339,8.2,,,n,CHILE,MAULE,LLICO,-34.7539,-72.0856,194.7040361,,,,,,,,,,,1,,,,,,,,,,,,,,
1906,8,17,0,40,,3,1,1339,8.2,,,n,CHILE,MAULE,PUTU,-35.22,-72.283,247.6322852,,,,,,,,,,,1,,,,,,,,,,,,,,
1906,8,17,0,40,,3,1,1339,8.2,,,n,CHILE,NUBLE,BUCHUPUREO,-36.08,-72.7954,349.3813746,,,,,,,,,,,1,,,,,,,,,,,,,,
1906,8,17,0,40,,3,1,1339,8.2,,,y,CHILE,MAGALLANES,DESEADO CAPE,-52.94,-74.55333,2224.608566,,,,,,,,,,,1,,,,,,,,,,,,,,
1906,9,14,16,4,18,4,1,1340,8,,,n,PAPUA NEW GUINEA,MOROBE,"UMBOI ISLAND (RUK, ROOKE, SIASSI)",-5.6,148,190.297815,,,,,,,,,,,1,,,,,,,,,,,,,,
1906,9,14,16,4,18,4,1,1340,8,,,n,PAPUA NEW GUINEA,WEST NEW BRITAIN,WEST COAST NEW BRITAIN,-5.8,148.5,143.772267,,,,,,,,,,,1,,,,,,,,,,,,,,
1906,9,14,16,4,18,4,1,1340,8,,,n,PAPUA NEW GUINEA,MOROBE,FINSCHHAFEN,-6.598,147.857,133.9421843,14,16,19,0,15,,,,1.5,,1,,,,,,,,,,,,,,
1906,9,14,16,4,18,4,1,1340,8,,,n,PAPUA NEW GUINEA,,"BUSEGA, HUON GULF",-6.7,147.7667,140.2958811,,,,,,,,,,,1,,,,,,,,,,,,,,
1906,9,14,16,4,18,4,1,1340,8,,,n,PAPUA NEW GUINEA,,HELDSBACH,-6.494,147.83,140.9328442,,,,,,,,,,,1,,,,,,,,,,,,,,
1906,9,14,16,4,18,4,1,1340,8,,,n,PAPUA NEW GUINEA,,MADANG ISLAND,-5.217,145.8,405.3822966,,,,,,,,,1.5,,1,,,,,,,,,,1,,,,
1906,9,14,16,4,18,4,1,1340,8,,,n,PAPUA NEW GUINEA,,TAMI ISLAND,-6.76,147.9,124.438903,,,,,,,,,,,1,,,,,,,,,,,,,,
1906,10,2,1,50,,3,1,1344,7.2,,,n,PAPUA NEW GUINEA,ORO,BUNA BAY,-8.667,148.4,520.3656629,,,,1,25,,,,1.2,,1,,,,,,,,,,,,,,
1906,10,2,1,50,,3,1,1344,7.2,,,n,PAPUA NEW GUINEA,MOROBE,FINSCHHAFEN,-6.598,147.857,313.9891405,2,4,,2,,,,,1,,1,,,,,,,,,,,,,,
1906,11,20,21,0,,3,1,3559,5,,,n,TOGO,,TOGO,6.17,1.35,121.7733076,,,,,,,,,,,1,,,,,,,,,,,,,,
1907,1,4,5,19,13.2,4,1,1349,8.2,,,n,INDONESIA,ACEH,"BANDA ACEH COAST (ATJEH), SUMATRA",5.5,95.3,312.769627,,,,,,,,,,,1,,,,,,,,,,,,,,
1907,1,4,5,19,13.2,4,1,1349,8.2,,,n,INDONESIA,ACEH,SIMEULUE ISLAND,,,,,,,,,,,,,,1,,,,,,,,,,,,,,
1907,1,4,5,19,13.2,4,1,1349,8.2,,,n,INDONESIA,WEST SUMATRA,"PADANG, SUMATRA",-1.003,100.379,676.128626,,,,,,,,,,,2,,,,,,,,,,,,,,
1907,1,4,5,19,13.2,4,1,1349,8.2,,,n,INDONESIA,NORTH SUMATRA,"GUNUNGSITOLI, NIAS ISLAND",1.286,97.619,278.9351545,,,,,,,,,0.7,,1,,,,,,,,,,,,,,
1907,1,4,5,19,13.2,4,1,1349,8.2,,,n,INDONESIA,NORTH SUMATRA,"NATAL, SUMATRA",0.557,99.113,462.7129802,,,,,,,,,,,1,,,,,,,,,,,,,,
1907,1,4,5,19,13.2,4,1,1349,8.2,,,n,INDONESIA,NORTH SUMATRA,"BARUS, SUMATRA",2.012,98.339,321.0723964,,,,,,,,,,,1,,,,,,,,,,,,,,
1907,1,4,5,19,13.2,4,1,1349,8.2,,,n,INDONESIA,ACEH,"MEULABOH (ANALABU), SUMATRA",4.143,96.128,174.7893517,,,,,,,,,,,1,,,,,,,,,,,,,,
1907,1,4,5,19,13.2,4,1,1349,8.2,,,n,SRI LANKA,,GALLE,6.031,80.231,1737.857612,,,,,,,,,0.6,,1,,,,,,,,,,,,,,
1907,1,4,5,19,13.2,4,1,1349,8.2,,,n,SRI LANKA,,HAMBANTOTA HARBOR,6.123,81.122,1643.601645,,,,,,,,,2.1,,1,,,,,,,,,,,,,,
1907,1,4,5,19,13.2,4,1,1349,8.2,,,n,MAURITIUS,,"RODRIGUES ISLAND, PORT MATHURIN",-19.683,63.417,4294.620523,,,,,,,,,,,1,,,,,,,,,,,,,,
1907,1,4,5,19,13.2,4,1,1349,8.2,,,n,INDONESIA,SUMATRA,"PULU TELLO (PALAU TELO), SUMATRA",-0.066,98.264,429.9136177,,,,,,,,,,,1,,,,,,,,,,,,,,
1907,1,4,5,19,13.2,4,1,1349,8.2,,,n,INDONESIA,SUMATRA,TAPANULI BAY (BAY OF SIBOLGA),1.729,98.785,377.0665085,,,,,,,,,,,1,,,,,,,,,,1,,,,
1907,1,4,5,19,13.2,4,1,1349,8.2,,,n,INDONESIA,SUMATRA,PULU BOANGA,,,,,,,,,,,,,,1,,,,,,,,,,,,,,
1907,1,4,5,19,13.2,4,1,1349,8.2,,,n,INDONESIA,ACEH,"KUALABEU (KUALA BHEE), SUMATRA",4.371,96.062,196.0028224,,,,,,,,,,,1,,,,,,,,,,,,,,
1907,1,4,5,19,13.2,4,1,1349,8.2,,,n,INDONESIA,NORTH SUMATRA,"PULURADJA (PULAU RAJA), SUMATRA",4.869,95.382,242.505151,,,,,,,,,,,1,,,,,,,,,,,,,,
1907,1,4,5,19,13.2,4,1,1349,8.2,,,n,INDONESIA,SUMATRA,MENTAWAI ISLANDS,-1,98.7,538.6347471,,,,,,,,,,,1,,,,,,,,,,,,,,
1907,1,4,5,19,13.2,4,1,1349,8.2,,,n,REUNION (FRENCH TERRITORY),,SAINTE MARIE,-20.9,55.5,5084.212874,,,,,,,,,,,1,,,,,,,,,,,,,,
1907,1,4,5,19,13.2,4,1,1349,8.2,,,n,REUNION (FRENCH TERRITORY),,SAINT BENOIT,-21.04,55.72,5070.533141,,,,,,,,,,,1,,,,,,,,,,,,,,
1907,1,4,5,19,13.2,4,1,1349,8.2,,,n,REUNION (FRENCH TERRITORY),,SAINT PIERRE,-21.34,55.48,5107.622205,,,,,,,,,2,,1,,,,,,,,,,,,,,
1907,1,4,5,19,13.2,4,1,1349,8.2,,,n,YEMEN,,ADEN,12.802,45.018,5672.327172,,,,,,,,,,,1,,,,,,,,,,,,,,
1907,1,4,5,19,13.2,4,1,1349,8.2,,,n,INDONESIA,ACEH,AYER,2.591,95.968,49.71298961,,,,,,,,,,,1,,,,,,,,,,1,,,,
1907,1,4,5,19,13.2,4,1,1349,8.2,,,n,INDONESIA,ACEH,ANGKE,2.509,96.165,73.13225224,,,,,,,,,,,1,,,,,,,,,,1,,,,
1907,1,4,5,19,13.2,4,1,1349,8.2,,,n,INDONESIA,ACEH,AWE KETJIL,2.436,96.252,84.74022384,,,,,,,,,,,1,,,,,,,,,,1,,,,
1907,1,4,5,19,13.2,4,1,1349,8.2,,,n,INDONESIA,ACEH,AWE SEBAL,2.433,96.271,86.84920189,,,,,,,,,,,1,,,,,,,,,,1,,,,
1907,1,4,5,19,13.2,4,1,1349,8.2,,,n,INDONESIA,ACEH,"BOEMAN (SERIE BOENON, BOENON SIRI)",2.519,96.15,71.23654866,,,,,,,,,,,1,,,,,,,,,,1,,,,
1907,1,4,5,19,13.2,4,1,1349,8.2,,,n,INDONESIA,NORTH SUMATRA,CAPE TOLOJAWA,1.404,97.062,221.3264595,,,,,,,,,,,1,,,2,1,,,,,,1,,,,
1907,1,4,5,19,13.2,4,1,1349,8.2,,,n,SRI LANKA,,COLOMBO,6.979,79.87,1800.524292,,,,,,,,,,,1,,,,,,,,,,,,,,
1907,1,4,5,19,13.2,4,1,1349,8.2,,,n,INDONESIA,NORTH SUMATRA,DOEMALA,1.171,97.304,258.5175935,,,,,,,,,,,1,,,3,1,,,,,,1,,,,
1907,1,4,5,19,13.2,4,1,1349,8.2,,,n,INDONESIA,ACEH,ALAFAN,2.824,95.756,29.6904001,,,,,,,,,8,,1,,,,,,,,,,,,,,
1907,1,4,5,19,13.2,4,1,1349,8.2,,,n,INDIA,MAHARASHTRA,APOLLO BANDAR,18.922,72.834,3056.074013,,,,,,,,,0.05,,2,,,,,,,,,,,,,,
1907,1,4,5,19,13.2,4,1,1349,8.2,,,n,INDONESIA,NORTH SUMATRA,AFULU,1.263,97.245,246.9576673,,,,,,,,,,1507,1,,,50,1,,,,,,,,,,
1907,1,4,5,19,13.2,4,1,1349,8.2,,,n,INDONESIA,,BAHOE,,,,,,,,,,,,,,1,,,,,,,,,,1,,,,
1907,1,4,5,19,13.2,4,1,1349,8.2,,,n,INDONESIA,ACEH,GUHANAGA (GENI),4.683,95.686,222.0563188,,,,,,,,,,,1,,,,,,,,,,,,,,
1907,1,4,5,19,13.2,4,1,1349,8.2,,,n,INDONESIA,NORTH SUMATRA,HULO UMA,1.252,97.236,246.9618116,,,,,,,,,,,1,,,,,,,,,,,,,,
1907,1,4,5,19,13.2,4,1,1349,8.2,,,y,FRENCH SOUTHERN AND ANTARCTIC TERRITORIES,,ILE SAINT-PAUL,-38.724,77.515,4943.677452,,,,,,,,,,,1,,,,,,,,,,,,,,
1907,1,4,5,19,13.2,4,1,1349,8.2,,,y,FRENCH SOUTHERN AND ANTARCTIC TERRITORIES,,ILES AMSTERDAM,-37.834,77.556,4853.583125,,,,,,,,,,,1,,,,,,,,,,,,,,
1907,1,4,5,19,13.2,4,1,1349,8.2,,,n,INDONESIA,ACEH,"INOEL (INOER), SIMEULUE",2.483,96.195,77.12565283,,,,,,,,,,,1,,,,,,,,,,1,,,,
1907,1,4,5,19,13.2,4,1,1349,8.2,,,n,PAKISTAN,,KARACHI,24.804,66.97,3921.898654,,,,,,,,,0.08,,2,,,,,,,,,,,,,,
1907,1,4,5,19,13.2,4,1,1349,8.2,,,y,INDONESIA,ACEH,KAYU MENANG,2.306,97.741,249.3672183,,,,,,,,,,,1,,,,,,,,,,,,,,
1907,1,4,5,19,13.2,4,1,1349,8.2,,,n,INDONESIA,,KOELA DEH,,,,,,,,,,,,,,1,,,,,,,,,,1,,,,
1907,1,4,5,19,13.2,4,1,1349,8.2,,,n,INDONESIA,,KOTA LADANG,,,,,,,,,,,,,,1,,,,,,,,,,,,,,
1907,1,4,5,19,13.2,4,1,1349,8.2,,,n,INDONESIA,ACEH,"KOTA TINGGI, SIMEULUE",2.399,96.475,109.6226806,,,,,,,,,,900,1,,,,,,,,,,1,,,,
1907,1,4,5,19,13.2,4,1,1349,8.2,,,n,INDONESIA,ACEH,"LA-EION, SIMEULUE",2.547,96.108,65.96191543,,,,,,,,,,,1,,,,,,,,,,1,,,,
1907,1,4,5,19,13.2,4,1,1349,8.2,,,n,INDONESIA,,LAHALOS,,,,,,,,,,,,,,1,,,,,,,,,,1,,,,
1907,1,4,5,19,13.2,4,1,1349,8.2,,,n,INDONESIA,ACEH,"LAHOEBANG (LAKUBANG), SIMEULUE",2.586,95.989,52.1118026,,,,,,,,,,3000,1,,,,,,,,,,1,,,,
1907,1,4,5,19,13.2,4,1,1349,8.2,,,n,INDONESIA,NORTH SUMATRA,"LAFU, NIAS ISLAND",1.401,97.213,234.7068578,,,,,,,,,,100,1,,,,,,,,,,1,,,,1
1907,1,4,5,19,13.2,4,1,1349,8.2,,,n,INDONESIA,NORTH SUMATRA,"LAGUNDI (LAGUNDRI?), NIAS ISLAND",0.582,97.737,337.8959206,,,,,,,,,,,1,,,,,,,,,,,,,,
1907,1,4,5,19,13.2,4,1,1349,8.2,,,n,INDONESIA,ACEH,"LAMAJAN (CAPE), SIMEULUE",2.572,95.996,53.20395324,,,,,,,,,,,1,,,,,,,,,,1,,,,
1907,1,4,5,19,13.2,4,1,1349,8.2,,,n,INDONESIA,,LAOKEH,,,,,,,,,,,,,,1,,,,,,,,,,1,,,,
1907,1,4,5,19,13.2,4,1,1349,8.2,,,n,INDONESIA,ACEH,"LASINGALOE, SIMEULUE",2.442,96.232,82.42053243,,,,,,,,,,,1,,,,,,,,,,1,,,,
1907,1,4,5,19,13.2,4,1,1349,8.2,,,n,INDONESIA,ACEH,"LESSIHAN, SIMEULUE",2.407,96.324,93.35439524,,,,,,,,,,,1,,,,,,,,,,,,,,
1907,1,4,5,19,13.2,4,1,1349,8.2,,,n,INDONESIA,ACEH,"LEBANG (LAUBANG?), SIMEULUE",2.433,96.283,88.11644896,,,,,,,,,,,1,,,,,,,,,,1,,,,
1907,1,4,5,19,13.2,4,1,1349,8.2,,,n,INDONESIA,ACEH,"LEUKOEN (LUKON), SIMEULUE",2.609,95.867,38.31134106,,,,,,,,,,,1,,,65,2,,,,,,1,,1,,
1907,1,4,5,19,13.2,4,1,1349,8.2,,,n,INDONESIA,ACEH,"LINGGANG ISLAND, SIMEULUE",2.61,95.868,38.39734579,,,,,,,,,,,1,,,,,,,,,,1,,1,,
1907,1,4,5,19,13.2,4,1,1349,8.2,,,n,INDIA,TAMIL NADU,CHENNAI (MADRAS),13.083,80.3,2033.643914,,,,,,,,,,,2,,,,,,,,,,,,,,
1907,1,4,5,19,13.2,4,1,1349,8.2,,,n,SRI LANKA,,MATARA,5.942,80.543,1702.039602,,,,,,,,,,,1,,,,,,,,,,,,,,
1907,1,4,5,19,13.2,4,1,1349,8.2,,,n,MAURITIUS,,MAURITIUS,-20.285,57.573,4860.488157,,,,,,,,,,,1,,,,,,,,,,,,,,
1907,1,4,5,19,13.2,4,1,1349,8.2,,,n,INDONESIA,ACEH,"MOEDIL, SIMEULUE",2.466,96.217,80.01334039,,,,,,,,,,,1,,,,,,,,,,1,,,,
1907,1,4,5,19,13.2,4,1,1349,8.2,,,n,INDONESIA,ACEH,"NANTJALLA, SIMEULUE",2.45,96.227,81.61264148,,,,,,,,,,,1,,,,,,,,,,1,,,,
1907,1,4,5,19,13.2,4,1,1349,8.2,,,n,INDONESIA,ACEH,"NAIBOS, SIMEULUE",2.489,96.187,76.08505954,,,,,,,,,10,1000,1,,,,1,,,,,,,,,,
1907,1,4,5,19,13.2,4,1,1349,8.2,,,n,INDONESIA,ACEH,"OEJONG, SIMEULUE",2.688,95.776,27.36569216,,,,,,,,,,,1,,,87,2,,,,,,,,,,
1907,1,4,5,19,13.2,4,1,1349,8.2,,,n,INDONESIA,NORTH SUMATRA,"OEDJOENG LOJANG, NIAS",1.53,97.352,239.331228,,,,,,,,,,,1,,,,,,,,,,1,,1,,
1907,1,4,5,19,13.2,4,1,1349,8.2,,,n,INDONESIA,,OEDJOENG OESOEJ (UJUNG GOSSONG?),,,,,,,,,,,,,,1,,,,,,,,,,1,,,,
1907,1,4,5,19,13.2,4,1,1349,8.2,,,n,REUNION (FRENCH TERRITORY),,POINTE DES GALETS,-20.94,55.305,5104.385506,4,12,20,,,,,,,,2,,,,,,,,,,,,,,
1907,1,4,5,19,13.2,4,1,1349,8.2,,,n,INDIA,ANDAMAN AND NICOBAR,"PORT BLAIR, ANDAMAN ISLANDS",11.675,92.761,1040.54314,4,7,51,,,4,12,36,0.13,,2,,,,,,,,,,,,,,
1907,1,4,5,19,13.2,4,1,1349,8.2,,,n,INDONESIA,NORTH SUMATRA,PULAU MAUSI ISLAND,1.355,97.101,228.1302687,,,,,,,,,,,1,,,,,,,,,,,,,,
1907,1,4,5,19,13.2,4,1,1349,8.2,,,n,INDONESIA,NORTH SUMATRA,PULAU WOENGA (PULAU WUNGA),1.207,97.091,238.1700616,,,,,,,,,15,,1,,,100,2,,,,,,,,1,,
1907,1,4,5,19,13.2,4,1,1349,8.2,,,n,INDONESIA,ACEH,"SALANG, SIMEULUE",2.637,95.864,37.4582655,,,,,,,,,,,1,,,,,,,,,,,,,,
1907,1,4,5,19,13.2,4,1,1349,8.2,,,n,INDONESIA,ACEH,"SALOER ILIR, SIMEULUE",2.443,96.238,83.01768184,,,,,,,,,,,1,,,,,,,,,,,,,,
1907,1,4,5,19,13.2,4,1,1349,8.2,,,n,REUNION (FRENCH TERRITORY),,SAINT GILLES,-21.06,55.23,5117.21486,,,,,,,,,,,1,,,,,,,,,,,,,,
1907,1,4,5,19,13.2,4,1,1349,8.2,,,n,SEYCHELLES,,SEYCHELLES,-4.7,55.5,4526.500265,,,,,,,,,,,1,,,,,,,,,,,,,,
1907,1,4,5,19,13.2,4,1,1349,8.2,,,n,INDONESIA,,SI LINGGAS,,,,,,,,,,,,,,1,,,,,,,,,,1,,,,
1907,1,4,5,19,13.2,4,1,1349,8.2,,,n,INDONESIA,,SI TOEBOEH,,,,,,,,,,,,,,1,,,,,,,,,,1,,,,
1907,1,4,5,19,13.2,4,1,1349,8.2,,,n,INDONESIA,NORTH SUMATRA,"SIFAHANDRO, NIAS",1.504,97.353,240.9672829,,,,,,,,,,,1,,,,,,,,,,1,,1,,
1907,1,4,5,19,13.2,4,1,1349,8.2,,,y,INDONESIA,NORTH SUMATRA,"SIBOLGA, SUMATRA",1.729,98.785,377.0665085,,,,,,,,,,,1,,,,,,,,,,,,,,
1907,1,4,5,19,13.2,4,1,1349,8.2,,,n,INDONESIA,ACEH,SIMUELOEE TJOET (SIMUELUE CUT),2.531,95.94,48.51734491,,,,,,,,,,,1,,,,,,,,,,1,,1,,
1907,1,4,5,19,13.2,4,1,1349,8.2,,,n,INDONESIA,ACEH,"SINABANG, SIMEULUE",2.479,96.379,97.02121672,,,,,,,,,0.5,,1,,,,,,,,,,,,,,
1907,1,4,5,19,13.2,4,1,1349,8.2,,,n,INDONESIA,NORTH SUMATRA,SIRIWAOE/SAROENG BAROENG,1.7,97.448,239.3457888,,,,,,,,,,,1,,,,,,,,,,,,,,
1907,1,4,5,19,13.2,4,1,1349,8.2,,,n,INDONESIA,NORTH SUMATRA,"SIROMBU, NIAS ISLAND",0.951,97.418,284.1100512,,,,,,,,,,,1,,,,1,,,,,,,,,,
1907,1,4,5,19,13.2,4,1,1349,8.2,,,n,INDONESIA,ACEH,"SOSOH, SUMATRA",3.721,96.825,184.2335657,,,,,,,,,,,1,,,,,,,,,,,,,,
1907,1,4,5,19,13.2,4,1,1349,8.2,,,n,INDONESIA,ACEH,"SOEA-SOEA, SIMEULUE",2.421,96.314,91.80625948,,,,,,,,,,,1,,,,,,,,,,1,,,,
1907,1,4,5,19,13.2,4,1,1349,8.2,,,n,INDONESIA,NORTH SUMATRA,"TALOE SIABA, NIAS ISLAND",1.51,97.378,242.9579493,,,,,,,,,,,1,,,,,,,,,,,,,,
1907,1,4,5,19,13.2,4,1,1349,8.2,,,n,INDONESIA,ACEH,"TANJUNG GOSSONG, SIMEULUE",2.395,96.336,95.05126555,,,,,,,,,,,1,,,,,,,,,,1,,,,
1907,1,4,5,19,13.2,4,1,1349,8.2,,,n,SRI LANKA,,TANGALLE (TANGALLA),6.022,80.801,1675.899069,,,,,,,,,,,1,,,,,,,,,,,,,,
1907,1,4,5,19,13.2,4,1,1349,8.2,,,n,INDONESIA,ACEH,TAPAH ISLAND,2.355,96.24,86.8002323,,,,,,,,,,,1,,,200,3,,,,,,,,,,
1907,1,4,5,19,13.2,4,1,1349,8.2,,,n,INDONESIA,ACEH,TAPAK TUAN,3.26,97.18,194.2835879,,,,,,,,,,,1,,,,,,,,,,,,,,
1907,1,4,5,19,13.2,4,1,1349,8.2,,,n,INDONESIA,,TITI KAPOER,,,,,,,,,,,,,,1,,,,,,,,,,1,,,,
1907,1,4,5,19,13.2,4,1,1349,8.2,,,n,INDONESIA,NORTH SUMATRA,TOERELAOEJA,1.45,97.5,257.9857337,,,,,,,,,,,1,,,1,1,,,,,,,,,,
1907,1,14,20,38,12,4,1,1350,6.2,,,n,JAMAICA,,ANNOTTO BAY,18.267,-76.767,71.3719839,,,,,,,,,2.2,9,1,,F,,,,,,,,2,,2,,
1907,1,14,20,38,12,4,1,1350,6.2,,,n,JAMAICA,,BUFF BAY,18.233,-76.667,66.11180723,,,,,,,,,2.5,,1,,F,,,,,,,,,,,,
1907,1,14,20,38,12,4,1,1350,6.2,,,n,JAMAICA,,HOPE BAY,18.2,-76.567,62.3476669,,,,,,,,,2.5,,1,,,,,,,,,,,,,,
1907,1,14,20,38,12,4,1,1350,6.2,,,n,JAMAICA,,KINGSTON HARBOR,17.967,-76.8,97.69948073,,,,,,,,,2.5,,1,,,,,,,,,,,,,,
1907,1,14,20,38,12,4,1,1350,6.2,,,n,JAMAICA,,OCHO RIOS,18.4,-77.1,95.78992753,,,,,,,,,2.5,,1,,F,,,,,,,,,,,,
1907,1,14,20,38,12,4,1,1350,6.2,,,n,JAMAICA,,ORANGE BAY,18.367,-78.317,222.1259875,,,,,,,,,2.5,,1,,,,,,,,,,,,,,
1907,1,14,20,38,12,4,1,1350,6.2,,,n,JAMAICA,,PORT ANTONIO,18.167,-76.45,59.74307998,,,,,,,,,2.5,,1,,,,,,,,,,,,1,,
1907,1,14,20,38,12,4,1,1350,6.2,,,n,JAMAICA,,PORT MARIA,18.367,-76.9,77.48334293,,,,,,,,,2.4,,1,,,,,,,,,,,,,,
1907,1,14,20,38,12,4,1,1350,6.2,,,n,JAMAICA,,SAINT ANN'S BAY,18.433,-77.2,104.9128578,,,,,,,,,2.5,,1,,F,,,,,,,,,,,,
1907,1,14,20,38,12,4,1,1350,6.2,,,n,JAMAICA,,SHEERNESS BAY,18.317,-76.8,70.96415178,,,,,,,,,2.5,,1,,,,,,,,,,,,,,
1907,3,29,20,46,30,1,1,1351,7.3,,,n,INDONESIA,NORTH SULAWESI,"KARAKELONG ISLAND, TALAUD ISLANDS",4.4,126.7,544.5728351,,,,,,,,,4,50,1,,,,,,,,,,,,,,
1907,4,14,6,8,6,3,1,1353,8.1,,,n,MEXICO,GUERRERO,ACAPULCO,16.833,-99.917,20.48792391,,,,,,,,,2,150,1,,,,,,,,,,,,,,
1907,4,14,6,8,6,3,1,1353,8.1,,,n,MEXICO,,SAN MARCOS,16.8,-99.35,72.70337756,,,,,,,,,,,1,,,,,,,,,,,,,,
1907,4,14,6,8,6,3,1,1353,8.1,,,n,MEXICO,,TECUANAPA,,,,,,,,,,,,,,1,,,,,,,,,,,,,,
1907,9,24,12,58,0,3,3,1362,5.5,,,n,USA,AK,"HAINES, AK",59.233,-135.433,29.98718679,,,,,,,,,,,1,,,,,,,,,,,,,,
1907,10,23,20,28,19,4,1,3415,5.9,,,n,ITALY,SICILY,"MESSINA, SICILY",38.198,15.56666,40.11946008,,,,,,,,,,,2,,,,,,,,,,,,,,
1907,10,23,20,28,19,4,1,3415,5.9,,,n,ITALY,SICILY,"CATANIA, SICILY",37.5,15.1,107.029919,,,,,,,,,,,2,,,,,,,,,,,,,,
1907,12,15,17,35,,2,1,1364,7.4,,,n,PAPUA NEW GUINEA,SANDAUN,AITAPE,-3.142,142.35,17.30805586,,,,,,,,,,,1,,,,,,,,,,2,,3,,
1908,2,6,,,,3,1,1367,7.5,,,n,INDONESIA,WEST SUMATRA,SIKAKAP,-2.767,100.217,88.17927654,,,,,,,,,,,1,,,,,,,,,,,,,,
1908,2,14,11,25,0,1,3,1368,6,,,y,USA,AK,"VALDEZ, AK",61.13,-146.33,16.09709538,,,,,,,,,,,1,,,,,,,,,,,,,,
1908,3,23,12,20,,-1,1,1369,6.6,,,y,INDONESIA,EAST NUSA TENGGARA,ATAPUPU,-9,124.85,468.904081,,,,,,,,,,,1,,,,,,,,,,,,,,
1908,9,21,6,31,,4,1,1371,6.8,,,n,USA,HI,"HILO, HAWAII, HI",19.7303,-155.0553,81.05013503,,,,,,,,,1.2,,2,,,,,,,,,,,,,,
1908,9,21,6,31,,4,1,1371,6.8,,,n,USA,HI,"PUNA DISTRICT, HAWAII",,,,,,,,,,,,,,1,,,,,,,,,,,,,,
1908,12,28,4,20,27,4,3,1373,7,,,n,ITALY,SICILY,"MESSINA, SICILY",38.18,15.561,2.000949369,,,,,,,,,3,,1,,,2,1,,,,,,3,,,,
1908,12,28,4,20,27,4,3,1373,7,,,n,EGYPT,,ALEXANDRIA,31.2,29.919,1521.93165,,,,,,,,,,,1,,,,,,,,,,,,,,
1908,12,28,4,20,27,4,3,1373,7,,,n,LIBYA,,COAST OF LIBYA,32,15,686.5508106,,,,,,,,,,,1,,,,,,,,,,,,,,
1908,12,28,4,20,27,4,3,1373,7,,,n,ITALY,,PARADISO,38.22694,15.56889,6.394837922,,,,,,,,,3.7,,1,,F,,,,,,,,,,,,
1908,12,28,4,20,27,4,3,1373,7,,,n,ITALY,,PACE,38.23722,15.57694,7.466254659,,,,,,,,,4.7,,1,,F,3,1,,,,,,2,,3,,
1908,12,28,4,20,27,4,3,1373,7,,,n,ITALY,SICILY,GALATI MARINA,38.1,15.5,10.46727101,,,,,,,,,8,,1,,,14,1,,,,,,3,,3,,
1908,12,28,4,20,27,4,3,1373,7,,,n,ITALY,SICILY,BRIGA MARINA,38.0775,15.49389,12.74479183,,,,,,,,,8.5,150,1,,F,46,1,,,,,,3,,3,,
1908,12,28,4,20,27,4,3,1373,7,,,n,ITALY,SICILY,GIAMPILERI MARINA,38.065,15.4814,14.51195306,,,,,,,,,7.2,,1,,,,,,,,,,1,,,,
1908,12,28,4,20,27,4,3,1373,7,,,n,ITALY,SICILY,S. TECLA,37.65,15.183,67.45451221,,,,,,,,,5.7,150,1,,,,,,,,,,2,,,,2
1908,12,28,4,20,27,4,3,1373,7,,,n,ITALY,SICILY,TORRE ARCHIRAFI,37.717,15.233,58.80885442,,,,,,,,,5.7,200,1,,,10,1,,,,,,2,,2,,
1908,12,28,4,20,27,4,3,1373,7,,,n,ITALY,SICILY,NIZZA DI SICILLA,37.983,15.417,25.20670602,,,,,,,,,9.2,120,1,,F,,,,,,,,1,,1,,1
1908,12,28,4,20,27,4,3,1373,7,,,n,ITALY,SICILY,SCALETTA ZANCLEA,38.05,15.467,16.60211527,,,,,,,,,8,300,1,,F,,,,,,,,2,,,,
1908,12,28,4,20,27,4,3,1373,7,,,n,ITALY,SICILY,ROCCALUMERA,37.967,15.4,27.51728363,,,,,,,,,8,150,1,,F,2,1,,,,,,2,,,,
1908,12,28,4,20,27,4,3,1373,7,,,n,ITALY,SICILY,FURCI,37.95,15.383,29.92014757,,,,,,,,,8,150,1,,,,,,,,,,,,,,
1908,12,28,4,20,27,4,3,1373,7,,,n,ITALY,SICILY,LETOIANNI,37.883,15.317,39.34504676,,,,,,,,,5,120,1,,F,,,,,,,,1,,,,
1908,12,28,4,20,27,4,3,1373,7,,,n,ITALY,SICILY,ALI MARINA,38,15.433,22.8556948,,,,,,,,,8.4,,1,,,,,,,,,,2,,,,
1908,12,28,4,20,27,4,3,1373,7,,,n,ITALY,SICILY,GIARDINI NAXOS,37.8275,15.26917,46.80383429,,,,,,,,,9.5,,1,,F,2,1,,,,,,1,,,,
1908,12,28,4,20,27,4,3,1373,7,,,n,ITALY,SICILY,S. ALESSIO,37.92472,15.35,33.89390196,,,,,,,,,11.7,,1,,,,,,,,,,,,,,
1908,12,28,4,20,27,4,3,1373,7,,,n,ITALY,SICILY,RIPOSTO,37.733,15.2,58.89117711,,,,,,,,,6,150,1,,F,3,1,,,,,,1,,,,
1908,12,28,4,20,27,4,3,1373,7,,,n,ITALY,SICILY,ACIREALE,37.617,15.167,71.32413025,,,,,,,,,3.7,,1,,F,,,,,,,,1,,,,
1908,12,28,4,20,27,4,3,1373,7,,,n,ITALY,SICILY,ACI TREZZA,37.564,15.161,76.70362717,,,,,,,,,7.1,100,1,,F,1,1,,,,,,1,,,,
1908,12,28,4,20,27,4,3,1373,7,,,n,ITALY,SICILY,OGNINA,37.529,15.113,82.16544085,,,,,,,,,5,,1,,F,,,,,,,,,,,,
1908,12,28,4,20,27,4,3,1373,7,,,n,ITALY,SICILY,"CATANIA, SICILY",37.5,15.1,85.53106636,,,,,,,,,2.7,200,1,,R,3,1,,,,,,1,,,,
1908,12,28,4,20,27,4,3,1373,7,,,n,ITALY,SICILY,BRUCOLI,37.28444,15.18806,104.1854428,,,,,,,,,4.3,50,1,,F,3,1,,,,,,1,,,,
1908,12,28,4,20,27,4,3,1373,7,,,n,ITALY,SICILY,AUGUSTA,37.2167,15.2167,110.5523847,,,,,,,,,1.85,700,1,,R,3,1,,,,,,1,,,,
1908,12,28,4,20,27,4,3,1373,7,,,n,ITALY,SICILY,SIRACUSA,37.067,15.3,124.89182,,,,,,,,,2,,1,,F,,,,,,,,1,,,,
1908,12,28,4,20,27,4,3,1373,7,,,n,ITALY,SICILY,CALABERNARDO,36.867,15.133,149.9176876,,,,,,,,,10,,1,,F,,,,,,,,,,,,
1908,12,28,4,20,27,4,3,1373,7,,,n,ITALY,SICILY,MILAZZO,38.217,15.233,30.84202393,,,,,,,,,1,,1,,F,,,,,,,,,,,,
1908,12,28,4,20,27,4,3,1373,7,,,n,ITALY,SICILY,TERMINI IMERESE,37.983,13.7,166.2511536,,,,,,,,,1,,1,,F,,,,,,,,,,,,
1908,12,28,4,20,27,4,3,1373,7,,,n,ITALY,SICILY,CEFALU,38.033,14.017,137.9318202,,,,,,,,,,10,1,,R,,,,,,,,,,,,
1908,12,28,4,20,27,4,3,1373,7,,,n,ITALY,CALABRIA,REGGIO CALABRIA,38.1,15.65,9.901232651,,,,,,,,,9.7,50,1,,F,,,,,,,,3,,3,,
1908,12,28,4,20,27,4,3,1373,7,,,n,ITALY,CALABRIA,GALLICO,38.167,15.65,6.143209572,,,,,,,,,5,400,1,,,112,3,,,,,,2,,,,2
1908,12,28,4,20,27,4,3,1373,7,,,n,ITALY,CALABRIA,VILLA SAN GIOVANNI,38.217,15.633,6.983790043,,,,,,,,,5,120,1,,F,,,,,,,,2,,,,
1908,12,28,4,20,27,4,3,1373,7,,,n,ITALY,CALABRIA,SCILLA,38.25,15.717,14.92724391,,,,,,,,,1,,1,,F,,,,,,,,,,,,
1908,12,28,4,20,27,4,3,1373,7,,,n,ITALY,CALABRIA,PELLARO,38.017,15.65,18.0587468,,,,,,,,,13,200,1,,F,,,,,,,,3,,3,,
1908,12,28,4,20,27,4,3,1373,7,,,n,ITALY,CALABRIA,LAZZARO,37.967,15.667,23.79071761,,,,,,,,,10.5,250,1,,R,90,2,,,,,,3,,3,,3
1908,12,28,4,20,27,4,3,1373,7,,,n,ITALY,CALABRIA,CAPO D'ARMI,38,15.7,21.6078047,,,,,,,,,4,,1,,R,,,,,,,,,,,,
1908,12,28,4,20,27,4,3,1373,7,,,n,ITALY,CALABRIA,GIOIOSA MARINA,38.3,16.333,67.48679295,,,,,,,,,,50,1,,R,,,,,,,,,,,,
1908,12,28,4,20,27,4,3,1373,7,,,n,ITALY,CALABRIA,ROCCELLA IONICA,38.317,16.4,73.61470567,,,,,,,,,7,25,1,,F,,,,,,,,,,,,
1908,12,28,4,20,27,4,3,1373,7,,,n,ITALY,CALABRIA,CIRO MARINA,39.367,17.133,189.3968401,,,,,,,,,6,20,1,,F,,,,,,,,,,,,
1908,12,28,4,20,27,4,3,1373,7,,,n,ITALY,,"STROMBOLI, AEOLIAN ISLANDS",38.789,15.213,75.80814432,,,,,,,,,,,1,,,,,,,,,,,,,,
1908,12,28,4,20,27,4,3,1373,7,,,n,MALTA,,MISIDA,35.893,14.483,270.8862729,,,,,,,,,,,1,,,,,,,,,,,,,,
1908,12,28,4,20,27,4,3,1373,7,,,n,MALTA,,SLIEMA,35.913,14.502,268.2039712,,,,,,,,,1.4,,1,,,,,,,,,,,,,,
1908,12,28,4,20,27,4,3,1373,7,,,n,MALTA,,LA VALLETTA,35.9,14.515,269.1452036,,,,,,,,,0.45,,2,22,,,,,,,,,,,,,
1908,12,28,4,20,27,4,3,1373,7,,,n,MALTA,,"XLENDI, GOZO ISLAND",36.03,14.218,266.5684231,,,,,,,,,6,,1,,,,,,,,,,,,,,
1908,12,28,4,20,27,4,3,1373,7,,,n,MALTA,,MIGGIARRO,36.025,14.296,263.9943542,,,,,,,,,1,,1,,,,,,,,,,,,,,
1908,12,28,4,20,27,4,3,1373,7,,,n,MALTA,,MARSALFORNO,36.071,14.259,260.8491275,,,,,,,,,0.7,,1,,,,,,,,,,,,,,
1908,12,28,4,20,27,4,3,1373,7,,,n,ITALY,VENETO,VENICE,45.439,12.327,851.2215945,,,,,,,,,,,2,,,,,,,,,,,,,,
1908,12,28,4,20,27,4,3,1373,7,,,n,ITALY,LAZIO,CIVITAVECCHIA,42.092,11.792,541.9781981,,,,,,,,,0.1,,2,,,,,,,,,,,,,,
1908,12,28,4,20,27,4,3,1373,7,,,n,ITALY,,ISCHIA ISLAND,40.733,13.95,317.2457547,,,,,,,,,0.2,,2,,,,,,,,,,,,,,
1908,12,28,4,20,27,4,3,1373,7,,,n,ITALY,SICILY,"LA PLAIA, CATANIA",37.48,15.085,88.11622778,,,,,,,,,,700,1,,,,,,,,,,,,,,
1908,12,28,4,20,27,4,3,1373,7,,,n,ITALY,SICILY,CAPO PASSERO,36.68611111,15.13833333,169.2657366,,,,,,,,,1.5,,1,,,,,,,,,,,,,,
1908,12,28,4,20,27,4,3,1373,7,,,n,ITALY,SICILY,S. PANAGIA,37.10694444,15.27777778,120.965659,,,,,,,,,1,100,1,,,,,,,,,,,,,,
1908,12,28,4,20,27,4,3,1373,7,,,n,ITALY,SICILY,ACI CASTELLO,37.55583333,15.14861111,78.02516394,,,,,,,,,3.5,,1,,,,,,,,,,,,,,
1908,12,28,4,20,27,4,3,1373,7,,,n,ITALY,SICILY,CAPO MULINI,37.57583333,15.17111111,75.12308159,,,,,,,,,4.9,,1,,,,,,,,,,1,,,,
1908,12,28,4,20,27,4,3,1373,7,,,n,ITALY,SICILY,POZZILLO,37.66055556,15.19666667,65.83017763,,,,,,,,,4.8,,1,,,,,,,,,,1,,,,
1908,12,28,4,20,27,4,3,1373,7,,,n,ITALY,SICILY,ARCHIRAFI,37.7,15.2,61.94677025,,,,,,,,,5.7,40,1,,,,,,,,,,,,,,
1908,12,28,4,20,27,4,3,1373,7,,,n,ITALY,SICILY,FONDACHELLO,37.75861111,15.21472222,55.81556196,,,,,,,,,5.6,,1,,,,,,,,,,,,,,
1908,12,28,4,20,27,4,3,1373,7,,,n,ITALY,SICILY,GURNA,37.78611111,15.23472222,52.30549766,,,,,,,,,5.6,,1,,,,,,,,,,,,,,
1908,12,28,4,20,27,4,3,1373,7,,,n,ITALY,SICILY,S. TERESA,37.94083333,15.36388889,31.73001237,,,,,,,,,6.1,150,1,,,,,,,,,,1,,,,
1908,12,28,4,20,27,4,3,1373,7,,,n,ITALY,SICILY,BUCALO,37.94944444,15.37277778,30.49685115,,,,,,,,,6.1,,1,,,,,,,,,,,,,,
1908,12,28,4,20,27,4,3,1373,7,,,n,ITALY,SICILY,ITALA,38.03722222,15.45388889,18.4271252,,,,,,,,,7.9,,1,,,,,,,,,,,,,,
1908,12,28,4,20,27,4,3,1373,7,,,n,ITALY,SICILY,GUIDOMANDRI,38.04194444,15.45916667,17.72992392,,,,,,,,,6.4,,1,,,,,,,,,,,,,,
1908,12,28,4,20,27,4,3,1373,7,,,n,ITALY,,FORTINO,38.26111111,15.6325,11.10941648,,,,,,,,,2.8,,1,,,,,,,,,,,,,,
1908,12,28,4,20,27,4,3,1373,7,,,n,ITALY,,TORRE FARO,38.26305556,15.64083333,11.62212967,,,,,,,,,0.8,,1,,,,,,,,,,,,,,
1908,12,28,4,20,27,4,3,1373,7,,,n,ITALY,SICILY,COZZO SPANDARO,36.69638889,15.1275,168.381044,,,,,,,,,1.5,,1,,,,,,,,,,,,,,
1908,12,28,4,20,27,4,3,1373,7,,,n,ITALY,SICILY,MARZAMEMI,36.73777778,15.11666667,164.1575045,,,,,,,,,1,,1,,,,,,,,,,,,,,
1908,12,28,4,20,27,4,3,1373,7,,,n,ITALY,SICILY,AVOLA,36.91055556,15.15083333,144.8368595,,,,,,,,,1.3,,1,,,,,,,,,,,,,,
1908,12,28,4,20,27,4,3,1373,7,,,n,ITALY,SICILY,STAZZO,37.65222222,15.195,66.7015593,,,,,,,,,4.3,,1,,,,,,,,,,,,,,
1908,12,28,4,20,27,4,3,1373,7,,,n,ITALY,SICILY,GUMA,37.78611111,15.23472222,52.30549766,,,,,,,,,5.6,,1,,,,,,,,,,,,,,
1908,12,28,4,20,27,4,3,1373,7,,,n,ITALY,SICILY,ISOLABELLA,37.8425,15.28,44.89552417,,,,,,,,,4,,1,,,,,,,,,,,,,,
1908,12,28,4,20,27,4,3,1373,7,,,n,ITALY,SICILY,PORTO SALVO,37.91861111,15.345,34.70051155,,,,,,,,,6,,1,,,,,,,,,,,,,,
1908,12,28,4,20,27,4,3,1373,7,,,n,ITALY,SICILY,PORTO EMPEDOCLE,37.29,13.53,205.4132384,,,,,,,,,0.5,,1,,,,,,,,,,,,,,
1908,12,28,4,20,27,4,3,1373,7,,,n,MALTA,,BIRZEBBUGIA,35.825,14.528,276.5716296,,,,,,,,,1.5,,1,,,,,,,,,,1,,,,1
1908,12,28,4,20,27,4,3,1373,7,,,n,MALTA,,MARSASCIROCCO,35.84,14.544,274.5216508,,,,,,,,,,,1,,,,,,,,,,1,,,,
1908,12,28,4,20,27,4,3,1373,7,,,n,ITALY,SICILY,MAZZARA,38.11667,13.36667,194.1088931,,,,,,,,,0.91,,2,,,,,,,,,,,,,,
1908,12,28,4,20,27,4,3,1373,7,,,n,ITALY,,CAGLIARI,39.2,9.166667,569.4796083,,,,,,,,,0.18,,2,24,,,,,,,,,,,,,
1908,12,28,4,20,27,4,3,1373,7,,,n,TUNISIA,,BISERTA,37.27,9.87,513.1483522,,,,,,,,,0.2,,2,,,,,,,,,,,,,,
1908,12,28,4,20,27,4,3,1373,7,,,n,ITALY,,NAPOLI MANDRACCHIO,40.83,14.25,316.6975588,,,,,,,,,0.12,,2,,,,,,,,,,,,,,
1908,12,28,4,20,27,4,3,1373,7,,,n,ITALY,,LIVORNO,43.55,10.31,744.2117605,,,,,,,,,0.11,,2,,,,,,,,,,,,,,
1908,12,28,4,20,27,4,3,1373,7,,,n,ITALY,,RAVENNA,44.42,12.21,749.1395369,,,,,,,,,,,2,,,,,,,,,,,,,,
1908,12,28,4,20,27,4,3,1373,7,,,n,ITALY,CALABRIA,PORTO S. VENERE,38.71,16.12,76.26066262,,,,,,,,,,,1,,,,,,,,,,,,,,
1908,12,28,4,20,27,4,3,1373,7,,,n,ITALY,SICILY,TRABIA,38,13.65,170.3658037,,,,,,,,,,,1,,,,,,,,,,,,,,
1908,12,28,4,20,27,4,3,1373,7,,,n,ITALY,CALABRIA,NICOTERA,38.545,15.933,51.81394082,,,,,,,,,,,1,,,,,,,,,,,,,,
1908,12,28,4,20,27,4,3,1373,7,,,n,ITALY,CALABRIA,TROPEA,38.68,15.9,63.13297325,,,,,,,,,,,1,,,,,,,,,,,,,,
1908,12,28,4,20,27,4,3,1373,7,,,n,ITALY,CALABRIA,SCALEA,39.814,15.79,183.4136234,,,,,,,,,,,1,,,,,,,,,,,,,,
1908,12,28,4,20,27,4,3,1373,7,,,n,ITALY,SICILY,PALERMO,38.117,13.37,193.8155868,,,,,,,,,0.19,,2,,,,,,,,,,,,,,
1909,3,12,23,19,,4,1,1374,6.7,,,n,JAPAN,CHIBA,CHOSHI,35.75,140.867,150.2012129,,,,,,,,,,,2,,,,,,,,,,,,,,
1909,3,13,14,29,,4,1,1375,7.5,,,n,JAPAN,CHIBA,CHOSHI,35.75,140.867,150.2012129,,,,,,,,,,,2,,,,,,,,,,,,,,
1909,6,3,18,40,48,2,1,1376,7.6,,,n,INDONESIA,WEST SUMATRA,KAMBANG,-1.667,100.7,49.69885944,,,,,,,,,,,,,,,,,,,,,,,,,
1909,6,3,18,40,48,2,1,1376,7.6,,,n,INDONESIA,RIAU,TANDJUNG,1.083333,104.483333,516.2880825,,,,,,,,,,,1,,,,,,,,,,,,,,
1909,6,3,18,40,48,2,1,1376,7.6,,,n,INDONESIA,EAST NUSA TENGGARA,PAU,-8.84432222,121.3066444,2372.947677,,,,,,,,,,,1,,,,,,,,,,,,,,
1909,6,3,18,40,48,2,1,1376,7.6,,,n,INDONESIA,EAST NUSA TENGGARA,MUTI,-8.84432222,121.3066444,2372.947677,,,,,,,,,,,1,,,,,,,,,,,,,,
1909,7,30,10,51,54,2,1,1382,7.4,,,n,MEXICO,GUERRERO,ACAPULCO,16.833,-99.917,12.99463976,,,,,,,,,,9,1,,,,,,,,,,,,,,
1909,8,14,6,30,0,4,1,1384,6.9,,,n,JAPAN,SHIGA,LAKE BIWA,35.033,135.883,55.6713205,,,,,,,,,1.8,,1,,,,,,,,,,,,,,
1909,12,9,23,28,,4,1,1386,8,,,n,USA TERRITORY,GU,"AGANA HARBOR, GUAM",13.48,144.75,111.7587583,,,,,,,,,,,1,,,,,,,,,,,,,,
1910,2,25,,,,1,1,1387,6,,,n,PAPUA NEW GUINEA,EAST NEW BRITAIN,"MATUPI HARBOR, NEW BRITAIN",-4.24,152.18,7.849411313,,,,,,,,,,,1,,,,,,,,,,,,,,
1910,11,10,12,19,54,3,1,4922,7.2,,,n,VANUATU,,TANMAETO,-15.08,168.08,208.0288063,,,,,,,,,,,1,,,,,,,,,,,,,,
1910,12,18,2,42,,2,1,1390,6.7,,,n,INDONESIA,NORTH SULAWESI,MORANGA,3.9333,126.6833,35.93603894,,,,,,,,,,,1,,,,,,,,,,,,,,
1910,12,30,,,,1,1,1391,6.2,,,n,PHILIPPINES,,BUTUAN,8.949,125.544,7.431560485,,,,,,,,,,,1,,,,,,,,,,,,,,
1911,5,11,,,,2,0,1395,6.6,,,n,TOGO,,"LOME, GOLD COAST",6.17,1.35,18.31888562,,,,,,,,,,,1,,,,,,,,,,1,,,,
1911,6,15,14,26,,4,1,1396,8,,,n,JAPAN,,"CHINZEI, KAKEROMA ISLAND",28.136,129.255,74.76819383,,,,,,,,,,,1,,,,,,,,,,2,,3,,
1911,6,15,14,26,,4,1,1396,8,,,n,JAPAN,,AGINA (AMAMI-O-SHIMA ISLAND),26.3706,127.8511,279.1660359,,,,,,,,,,,1,,,,,,,,,,,,,,
1911,7,12,4,7,36,1,1,1397,7.8,,,n,PHILIPPINES,,TALACOGON,8.331,124.274,203.8588818,,,,,,,,,,,1,,,,,,,,,,,,,,
1911,7,12,4,7,36,1,1,1397,7.8,,,n,PHILIPPINES,,BUTUAN,8.949,125.544,50.46059394,,,,,,,,,,,1,,,,,,,,,,,,,,
1911,7,12,4,7,36,1,1,1397,7.8,,,n,PHILIPPINES,,LA PAZ,7.334,125.723,186.7653836,,,,,,,,,,,1,,,,,,,,,,,,,,
1911,7,12,4,7,36,1,1,1397,7.8,,,n,PHILIPPINES,,VERUELA,8.0725,125.9547,102.701519,,,,,,,,,,,1,,,,,,,,,,,,,,
1911,9,22,5,1,24,1,3,1399,6.9,,,y,USA,AK,"PORT WELLS (BAY), AK",60.88,-148.17,62.03981801,,,,,,,,,,,1,,,,,,,,,,,,,,
1912,6,8,4,42,,3,1,1401,6.6,,,n,JAPAN,IWATE,RIKUCHU,39.74,142,84.38807626,,,,,,,,,,,1,,,,,,,,,,,,,,
1912,8,9,1,29,2.1,4,3,2325,7.2,,,n,TURKEY,,CANAKKALE,40.15,26.41,88.24293199,,,,,,,,,,,1,,,,,,,,,,,,,,
1912,8,9,1,29,2.1,4,3,2325,7.2,,,n,TURKEY,,TEKIRDAG,40.97,27.5,41.61417874,,,,,,,,,,,1,,F,,,,,,,,,,,,
1912,8,9,1,29,2.1,4,3,2325,7.2,,,n,TURKEY,,HAYIRSIZ ISLAND,40.64,27.485,32.35290625,,,,,,,,,,,1,,,,,,,,,,,,,,
1912,8,9,1,29,2.1,4,3,2325,7.2,,,n,TURKEY,,YESILKOY,40.98,28.6,127.7594127,,,,,,,,,2.7,,1,,F,,,,,,,,,,,,
1912,8,9,1,29,2.1,4,3,2325,7.2,,,n,TURKEY,,KADIKOY,40.97,29.05,164.8295296,,,,,,,,,,,1,,,,,,,,,,,,,,
1912,8,9,1,29,2.1,4,3,2325,7.2,,,n,TURKEY,,PASABAHCE,41.11,29.09,171.1421944,,,,,,,,,,,1,,,,,,,,,,1,,,,
1912,10,31,17,24,,1,1,1403,6.9,,,n,"MICRONESIA, FED. STATES OF",,"YAP ISLAND, CAROLINE ISLANDS",9.517,138.133,278.758873,,,,,,,,,,,1,,,,,,,,,,,,,,
1913,2,22,1,6,,3,1,1405,6.8,,,n,NEW ZEALAND,,NGAKAWAU,-41.617,171.883,37.80491554,,,,,,,,,1.5,,1,,,,,,,,,,,,,,
1913,2,22,1,6,,3,1,1405,6.8,,,n,NEW ZEALAND,,WESTPORT,-41.75,171.567,7.865835333,,,,,,,,,,,1,,,,,,,,,,,,,,
1913,2,22,1,6,,3,1,1405,6.8,,,n,NEW ZEALAND,,KARAMEA,-41.25,172.117,79.8955604,,,,,,,,,,,1,,,,,,,,,,,,,,
1913,2,22,1,6,,3,1,1405,6.8,,,n,NEW ZEALAND,,CAPE FOULWIND,-41.75,171.467,6.194236719,,,,,,,,,,,1,,F,,,,,,,,,,,,
1913,3,14,8,45,4.3,-1,4,1407,7.8,585,,n,PHILIPPINES,,"SURIGAO, MINDANAO ISLAND",9.784,125.489,494.8686249,,,,,,,,,,,1,,,,,,,,,,,,,,
1913,7,28,6,40,,1,1,1408,7,,,n,PERU,AREQUIPA,MOLLENDO,-17.017,-72,146.0531217,,,,,,,,,,,7,,,,,,,,,,1,,,,
1913,10,2,4,23,28,2,3,5668,6.7,,,n,PANAMA,,PEDASI (PEDACI),7.5,-80,79.66467684,,,,,,,,,,,1,,,,1,,,,,,,,1,,
1913,10,2,4,23,28,2,3,5668,6.7,,,n,PANAMA,,ISLA FRAILES DEL NORTE,7.372,-80.154,57.71468562,,,,,,,,,,,1,,,,,,,,,,,,,,
1913,10,11,4,6,3,4,1,1410,7,,,n,USA,HI,"HONOLULU, OAHU, HI",21.3067,-157.867,6688.723895,,,,,,,,,0.1,,2,17,,,,,,,,,,,,,
1914,1,12,9,28,,4,4,1412,7.1,867,,n,JAPAN,KAGOSHIMA,KAGOSHIMA,31.583,130.567,9.782398027,12,10,58,1,30,,,,3,,1,,,,,,,,,,1,,,,
1914,2,26,4,58,12,1,1,1413,7.2,,,n,PERU,AREQUIPA,MOLLENDO,-17.017,-72,1.881378936,,,,,,,,,,,1,,,,,,,,,,,,,,
1914,5,26,14,22,47.7,4,1,1416,8.1,,,n,USA,HI,"HONOLULU, OAHU, HI",21.3067,-157.867,7533.931629,,,,,,,,,0.1,,2,,,,,,,,,,,,,,
1914,5,26,14,22,47.7,4,1,1416,8.1,,,n,INDONESIA,WEST PAPUA,"ANSUS, JAPEN I., IRIAN JAYA",-1.7333,135.8167,125.7649395,,,,,,,,,,,1,,,,1,,,,,,,,,,
1914,5,26,14,22,47.7,4,1,1416,8.1,,,n,INDONESIA,WEST PAPUA,"POM, JAPEN I., IRIAN JAYA",-1.6333,135.7,139.9899566,,,,,,,,,,,1,,,,1,,,,,,,,,,
1914,5,26,14,22,47.7,4,1,1416,8.1,,,n,PAPUA NEW GUINEA,,ENDE,,,,,,,,,,,,,,1,,,,,,,,,,,,,,
1914,5,26,14,22,47.7,4,1,1416,8.1,,,n,INDONESIA,MALUKU,"BANDANAIRA (BANDA-NEIRA), BANDA IS.",-4.529,129.9,837.7569611,,,,,,,,,,,1,,,,,,,,,,,,,,
1914,6,25,19,7,25.9,2,1,1418,7.6,,,n,INDONESIA,BENGKULU,"BENGKULU, SUMATRA",-3.767,102.267,52.59635954,,,,,,,,,,,1,,,,,,,,,,,,,,
1914,11,27,14,39,42.6,1,3,1420,6.3,,,n,GREECE,,"NYDRI, LEVKAS ISLAND, IONIAN IS",38.7,20.578,13.12243432,,,,,,,,,3,,1,,,,,,,,,,,,,,
1915,8,7,15,4,3,2,1,1427,6.7,,,n,GREECE,,"LEVKAS ISLAND, IONIAN ISLANDS",38.7,20.578,24.61415777,,,,,,,,,1.5,,1,,,,,,,,,,,,,,
1915,8,7,15,4,3,2,1,1427,6.7,,,n,GREECE,,"KEFALLONIA ISLAND, IONIAN ISLANDS",38.46,20.58,11.37337891,,,,,,,,,1.5,,1,,,,,,,,,,,,,,
1915,9,7,1,20,48,1,1,1428,7.9,,,m,EL SALVADOR,,BARRA DE SANTIAGO,13.6934,-90.0126,114.6024539,,,,,,,,,,,1,,,,,,,,,,,,,,
1915,11,1,7,23,43,4,1,1429,7.8,,,n,JAPAN,MIYAGI,ARAHAMA VILLAGE,38.05,140.917,175.9553574,,,,,,,,,0.9,,1,,,,,,,,,,,,,,
1915,11,1,7,23,43,4,1,1429,7.8,,,n,JAPAN,MIYAGI,SHIZUGAWA BAY,38.6667,141.446,133.2342115,,,,,,,,,1,,1,,,,,,,,,,,,,,
1915,11,1,7,23,43,4,1,1429,7.8,,,n,CANADA,BC,"TOFINO (CLAYOQUOT),BRITISH COLUMBIA",49.153,-125.913,6993.153402,1,16,58,9,32,1,19,12,0.06,,2,12,F,,,,,,,,,,,,
1915,11,6,,,,2,1,1430,6,,,n,INDONESIA,PAPUA,"KORIM, BIAK ISLAND",-0.9,136.033,11.65154976,,,,,,,,,,,1,,,,,,,,,,,,,,
1915,11,18,20,19,18,3,1,1431,6.4,,,n,PHILIPPINES,,LAOAG RIVER,18.1989,120.5936,117.8271892,,,,,,,,,,,1,,,,,,,,,,,,,,
1916,1,1,13,20,49.3,3,1,1432,7.9,,,n,PAPUA NEW GUINEA,EAST NEW BRITAIN,"RABAUL, NEW BRITAIN",-4.22,152.18,70.43997405,,,,,,,,,,,1,,,,,,,,,,1,,,,
1916,4,26,2,21,52,4,1,1434,7,,,n,PANAMA,,ISLA BASTIMENTOS,9.35,-82.2,35.31173179,,,,,,,,,,,1,,,,,,,,,,,,,,
1916,4,26,2,21,52,4,1,1434,7,,,n,PANAMA,,BOCAS DEL TORO,9.333,-82.25,40.32104699,,,,,,,,,0.6,200,1,,,,,,,,,,1,,,,
1916,4,26,2,21,52,4,1,1434,7,,,n,PANAMA,,ISLA DE CARENERO,9.333,-82.233,39.07391179,,,,,,,,,1.2,,1,,,,,,,,,,,,,,
1916,4,26,2,21,52,4,1,1434,7,,,n,PANAMA,,CAREENING CAY,9.333,-81.75,40.32104699,,,,,,,,,1.3,,1,,,,,,,,,,1,,,,
1916,4,26,2,21,52,4,1,1434,7,,,n,PANAMA,,ISLA COLON,9.4,-82.283,38.14366546,,,,,,,,,0.5,,1,,,,,,,,,,,,,,
1916,4,26,2,21,52,4,1,1434,7,,,n,COSTA RICA,,SIXAOLA,9.50117,-82.612381,68.11409041,,,,,,,,,,,1,,,,,,,,,,,,,,
1916,7,3,23,21,41,4,1,3147,5.1,4743,,n,ITALY,,"SAN BARTOLO, STROMBOLI ISLAND",38.806,15.235,1.233424513,,,,,,,,,10,,1,,,,,,,,,,,,,,
1916,7,3,23,21,41,4,1,3147,5.1,4743,,n,ITALY,,"PISCITA, STROMBOLI ISLAND",38.8085,15.2333,0.943960926,,,,,,,,,,20,1,,,,,,,,,,,,,,
1916,7,3,23,21,41,4,1,3147,5.1,4743,,n,ITALY,,"SPIAGGIA LONGA, STROMBOLI ISLAND",38.8118,15.2208,1.206639368,,,,,,,,,,,1,,,,,,,,,,,,,,
1916,8,16,7,6,22.2,4,1,3811,6,,,n,ITALY,,"FOCE TAVOLLO, PESARO",43.966,12.757,21.61700653,,,,,,,,,0.2,,1,,,,,,,,,,,,,,
1917,1,20,23,11,34,3,1,1439,6.6,,,n,INDONESIA,BALI,"BENOA, BALI ISLAND",-8.79,115.23,215.4049402,,,,,,,,,,,1,,,,,,,,,,,,,,
1917,1,20,23,11,34,3,1,1439,6.6,,,n,INDONESIA,BALI,"KLUNKUNG, BALI ISLAND",-8.575,115.41,185.9454584,,,,,,,,,,,1,,,,,,,,,,,,,,
1917,1,25,,,,3,1,1440,6.5,,,n,CHINA,,"AMOY, FUJIAN PROVINCE",24.47,118.08,0,,,,,,,,,,,1,,,,,,,,,,1,,,,
1917,1,25,,,,3,1,1440,6.5,,,n,CHINA,,"TUNGAN, FUJIAN PROVINCE",24.7268,118.1474,29.25250738,,,,,,,,,,,1,,,,,,,,,,1,,,,
1917,1,31,3,39,55,3,1,1442,6.4,,,n,PHILIPPINES,,GLAN,5.817,125.183,28.63867966,,,,,,,,,1.5,,1,,,,,,,,,,,,,,
1917,5,1,18,27,,4,1,1444,8,,,n,USA,CA,"LA JOLLA, CA",32.867,-117.257,9321.702314,,,,12,33,,,,,,2,,,,,,,,,,,,,,
1917,5,1,18,27,,4,1,1444,8,,,n,USA,CA,"SAN FRANCISCO, CA",37.807,-122.465,9340.92168,2,7,4,12,33,,,,0.1,,2,20,,,,,,,,,,,,,
1917,5,1,18,27,,4,1,1444,8,,,n,USA,HI,"HONOLULU, OAHU, HI",21.3067,-157.867,5953.67679,2,2,21,7,54,,,,0.3,,2,20,,,,,,,,,,,,,
1917,5,1,18,27,,4,1,1444,8,,,y,SAMOA,,"APIA, UPOLU ISLAND",,,,,,,,,,,,12.2,,1,,,,,,,,,,,,,,
1917,5,1,18,27,,4,1,1444,8,,,n,USA,CA,"SAN DIEGO, CA",32.715,-117.174,9316.669629,2,7,0,,,,,,0.1,,2,17,,,,,,,,,,,,,
1917,5,1,18,27,,4,1,1444,8,,,n,CANADA,BC,"TOFINO (CLAYOQUOT),BRITISH COLUMBIA",49.153,-125.913,10048.30773,2,8,24,13,58,2,8,24,0.06,,2,,F,,,,,,,,,,,,
1917,5,6,12,19,,4,1,1445,5.8,,,n,TAIWAN,,KEELUNG,25.15,121.75,216.5206775,,,,,,,,,0.5,,2,26,,,,,,,,,,,,,
1917,6,26,5,49,42,4,1,1446,8.3,,,n,USA TERRITORY,AS,"PAGO PAGO, AMERICAN SAMOA",-14.2766,-170.689,283.127659,,,,,,,,,2.4,,1,,F,,,,,,,,1,,3,,1
1917,6,26,5,49,42,4,1,1446,8.3,,,n,USA,HI,"HONOLULU, OAHU, HI",21.3067,-157.867,4394.106421,26,13,32,7,42,,,,0.1,,2,20,,,,,,,,,,,,,
1917,6,26,5,49,42,4,1,1446,8.3,,,n,SAMOA,,SAINILI (SINALEI),-14.009,-171.7883,210.3250645,,,,,,,,,,,1,,,,,,,,,,1,,,,
1917,6,26,5,49,42,4,1,1446,8.3,,,n,SAMOA,,"SAMOA, SOUTH COAST",,,,,,,,,,,,12.2,,1,,,,,,,,,,1,,1,,1
1917,6,26,5,49,42,4,1,1446,8.3,,,n,USA TERRITORY,AS,"LEONE, TUTUILA, AMERICAN SAMOA",-14.34,-170.78,271.1474375,,,,,,,,,,,1,,,,,,,,,,1,,,,1
1917,6,26,5,49,42,4,1,1446,8.3,,,n,USA,CA,"SAN FRANCISCO, CA",37.807,-122.465,7916.474218,26,17,2,11,12,,,,0.04,,2,17,,,,,,,,,,,,,
1917,6,26,5,49,42,4,1,1446,8.3,,,n,USA,CA,"SAN DIEGO, CA",32.715,-117.174,7981.57086,,,,,,,,,0.1,,2,,,,,,,,,,,,,,
1917,6,26,5,49,42,4,1,1446,8.3,,,n,CANADA,BC,"TOFINO (CLAYOQUOT),BRITISH COLUMBIA",49.153,-125.913,8529.123509,26,17,18,11,28,25,18,45,0.05,,2,,F,,,,,,,,,,,,
1917,6,26,5,49,42,4,1,1446,8.3,,,n,TONGA,,HAAPAI,-19.78,-174.34,494.5667325,,,,,,,,,4.2,,1,,,,,,,,,,,,,,
1917,6,26,5,49,42,4,1,1446,8.3,,,n,TONGA,,NIUATOPUTAPU,-15.95,-173.78,97.30608185,,,,,,,,,2.74,,1,,,,,,,,,,2,,3,,
1917,6,26,5,49,42,4,1,1446,8.3,,,n,SAMOA,,"APIA, UPOLU ISLAND",-13.8268,-171.7613,228.2008012,26,5,55,0,6,,,,0.4,,2,18,,,,,,,,,,,,,
1917,6,26,5,49,42,4,1,1446,8.3,,,n,SAMOA,,UPOLU ISLAND,-14,-171.8,210.3324516,,,,,,,,,3.1,,1,,,,,,,,,,1,,1,,
1917,6,26,5,49,42,4,1,1446,8.3,,,n,SAMOA,,"ALEIPATA COAST, UPOLU ISLAND",-14.01,-171.43,236.1228586,,,,,,,,,3,,1,,,,,,,,,,1,,,,1
1917,6,26,5,49,42,4,1,1446,8.3,,,n,SAMOA,,"LOTOFAGA, UPOLU ISLAND",-14.044,-171.57,222.834911,,,,,,,,,,,1,,,,,,,,,,1,,1,,1
1917,6,26,5,49,42,4,1,1446,8.3,,,n,SAMOA,,"PALAULI, SAVAI'I",-13.75,-172.31,207.4072536,,,,,,,,,,,1,,,,,,,,,,1,,1,,
1917,6,26,5,49,42,4,1,1446,8.3,,,n,SAMOA,,"SATUPAITEA, SAVAI'I",-13.77,-172.33,204.5718021,,,,,,,,,,,1,,,,,,,,,,,,2,,
1917,6,26,5,49,42,4,1,1446,8.3,,,n,SAMOA,,FAGALOA,-13.802,-172.519,194.8894328,,,,,,,,,,,1,,,2,1,,,,,,,,1,,
1917,7,29,21,52,31,2,1,1448,7.5,,,n,PAPUA NEW GUINEA,SANDAUN,AITAPE,-3.142,142.35,92.93902218,,,,,,,,,0.9,,1,,,,,,,,,,,,,,
1917,11,16,3,19,28,2,1,1450,7.5,,,n,TONGA,,TONGA ISLANDS,,,,,,,,,,,,,,1,,,,,,,,,,,,,,
1918,2,13,6,7,13,3,3,1451,7.5,,,n,CHINA,,SHANTOU,23.367,116.667,56.424933,,,,,,,,,,,1,,,,,,,,,,,,,,
1918,8,14,,,,0,1,3579,5.5,,,n,CHINA,,"QUIAOJIA, YUNNAN PROVINCE",26.92,102.9,10.17756571,,,,,,,,,,,7,,,,,,,,,,,,,,
1918,8,15,12,18,24,4,1,1456,8.3,,,n,USA,HI,"HONOLULU, OAHU, HI",21.3067,-157.867,8566.313802,,,,,,,,,0.1,,2,17,,,,,,,,,,,,,
1918,8,15,12,18,24,4,1,1456,8.3,,,n,JAPAN,MIYAZAKI,HOSOSHIMA,32.433,131.667,3082.503748,15,16,24,4,6,,,,0.07,,2,20,,,,,,,,,,,,,
1918,8,15,12,18,24,4,1,1456,8.3,,,n,JAPAN,WAKAYAMA,KUSHIMOTO,33.467,135.783,3324.197466,15,16,30,4,12,,,,0.2,,2,22,,,,,,,,,,,,,
1918,8,15,12,18,24,4,1,1456,8.3,,,n,PHILIPPINES,,"LEBAC, MINDANAO ISLAND",6.6333,124.0667,121.3927507,,,,,,,,,2.5,,,,,6,1,,,,,,,,,,
1918,8,15,12,18,24,4,1,1456,8.3,,,n,INDONESIA,CENTRAL SULAWESI,"PALELEH, SULAWESI ISLAND",1.0481,121.9514,545.898373,15,21,0,8,52,,,,,,1,,,,,,,,,,,,,,
1918,8,15,12,18,24,4,1,1456,8.3,,,n,PHILIPPINES,,"SURIGAO, MINDANAO ISLAND",9.784,125.489,497.6985074,,,,,,,,,,,,,,,,,,,,,2,,,,
1918,8,15,12,18,24,4,1,1456,8.3,,,n,PHILIPPINES,,"GLAN, MINDANAO ISLAND",5.817,125.183,135.2790978,,,,,,,,,5.5,,1,,,,,,,,,,2,,2,,
1918,8,15,12,18,24,4,1,1456,8.3,,,n,INDONESIA,CENTRAL SULAWESI,"BOCAT, SULAWESI ISLAND",1.0878,121.5014,564.6744808,,,,,,,,,,,1,,,,,,,,,,,,,,
1918,8,15,12,18,24,4,1,1456,8.3,,,n,INDONESIA,NORTH SULAWESI,"MANADO, SULAWESI ISLAND",1.495,124.84,456.8417752,15,21,15,9,7,,,,1,,1,,,,,,,,,,,,,,
1918,8,15,12,18,24,4,1,1456,8.3,,,n,INDONESIA,CENTRAL SULAWESI,"BUOL, SULAWESI ISLAND",1.1667,121.4333,560.8833133,15,21,15,9,7,,,,,,1,,,,,,,,,,1,,,,
1918,9,7,17,16,,4,1,1457,8.2,,,n,USA,CA,"SAN FRANCISCO, CA",37.807,-122.465,6867.648969,8,2,25,9,9,,,,0.03,,2,14,R,,,,,,,,,,,,
1918,9,7,17,16,,4,1,1457,8.2,,,n,USA,HI,"HILO, HAWAII, HI",19.7303,-155.0553,5639.525322,,,,,,,,,1.5,,2,,,,,,,,,,1,,,,
1918,9,7,17,16,,4,1,1457,8.2,,,n,USA,HI,"HONOLULU, OAHU, HI",21.3067,-157.867,5306.002388,8,0,22,7,6,,,,0.3,,2,29,,,,,,,,,,,,,
1918,9,7,17,16,,4,1,1457,8.2,,,n,JAPAN,KANAGAWA,ABURATSUBO,35.167,139.617,1525.077967,7,18,40,1,24,,,,,,1,,,,,,,,,,,,,,
1918,9,7,17,16,,4,1,1457,8.2,,,n,JAPAN,MIYAGI,AYUKAWA,38.3,141.5,1150.754117,,,,,,,,,0.45,,2,,,,,,,,,,,,,,
1918,9,7,17,16,,4,1,1457,8.2,,,n,JAPAN,HOKKAIDO,HANASAKI,43.2781,145.5678,533.0828841,7,18,34,1,18,,,,0.55,,2,,,,,,,,,,,,,,
1918,9,7,17,16,,4,1,1457,8.2,,,n,JAPAN,"BONIN IS, TOKYO","FUTAMI BAY, CHICHIJIMA ISLAND",27.0939,142.195,2203.161678,,,,,,,,,3,,1,,,,,,,,,,1,,,19,1
1918,9,7,17,16,,4,1,1457,8.2,,,n,JAPAN,CHIBA,CHOSHI,35.75,140.867,1405.12499,,,,,,,,,0.5,,1,,,,,,,,,,,,,,
1918,9,7,17,16,,4,1,1457,8.2,,,n,JAPAN,HOKKAIDO,HAKODATE,41.783,140.733,960.8601389,,,,,,,,,0.5,,1,,,,,,,,,,,,,,
1918,9,7,17,16,,4,1,1457,8.2,,,n,JAPAN,HOKKAIDO,HANASAKI,43.283,145.567,532.8703942,,,,,,,,,1.1,,1,,,,,,,,,,,,,,
1918,9,7,17,16,,4,1,1457,8.2,,,n,JAPAN,MIYAZAKI,HOSOSHIMA,32.433,131.667,2238.086652,7,20,58,3,42,,,,0.15,,2,,,,,,,,,,,,,,
1918,9,7,17,16,,4,1,1457,8.2,,,n,JAPAN,WAKAYAMA,KII-KUSHIMOTO,34.2,136.33,1799.625212,7,20,22,3,6,,,,0.32,,2,,,,,,,,,,,,,,
1918,9,7,17,16,,4,1,1457,8.2,,,n,JAPAN,HOKKAIDO,NEMUROKO,43.35,145.583,528.0998856,,,,,,,,,1,,1,,,,,,,,,,,,,,
1918,9,7,17,16,,4,1,1457,8.2,,,n,RUSSIA,KURIL ISLANDS,"CHERNYE, URUP I, KURILSKIYE",46.53,150.88,124.1457861,,,,,,,,,1.5,,1,,,,,,,,,,,,,,
1918,9,7,17,16,,4,1,1457,8.2,,,n,SAMOA,,"APIA, UPOLU ISLAND",-13.83,-171.767,7538.028407,8,2,58,9,42,,,,0.2,,1,20,,,,,,,,,,,,,
1918,9,7,17,16,,4,1,1457,8.2,,,n,RUSSIA,KURIL ISLANDS,"MAERO, ITURUP I, KURILSKIYE",,,,7,17,46,0,30,,,,6,,1,,,,,,,,,,,,,,
1918,9,7,17,16,,4,1,1457,8.2,,,n,RUSSIA,KURIL ISLANDS,"TOSHIRERI, ITURUP I, KURILSKIYE",,,,,,,,,,,,2.5,,1,,,,,,,,,,,,,,
1918,9,7,17,16,,4,1,1457,8.2,,,n,RUSSIA,KURIL ISLANDS,"OPASNAIA BAY, URUP I,  KURILSKIYE",45.91486,150.135,115.8615927,7,17,46,0,30,,,,12,,1,,,23,1,,,7,1,,2,,2,,
1918,9,7,17,16,,4,1,1457,8.2,,,n,USA,AK,"CRAIG, AK",55.46,-133.13,5189.948749,8,1,0,,,,,,0.03,,2,20,,,,,,,,,,,,,
1918,9,7,17,16,,4,1,1457,8.2,,,n,CANADA,BC,"TOFINO (CLAYOQUOT),BRITISH COLUMBIA",49.153,-125.913,5935.423411,8,1,48,8,32,8,1,56,0.08,,2,16,R,,,,,,,,,,,,
1918,9,7,17,16,,4,1,1457,8.2,,,n,RUSSIA,KURIL ISLANDS,"SHIBETORO, ITURUP I,  KURILSKIYE",,,,,,,,,,,,2.5,,1,,,,,,,,,,,,,,
1918,9,7,17,16,,4,1,1457,8.2,,,n,RUSSIA,KURIL ISLANDS,"SHANE,  KURILSKIYE",,,,,,,,,,,,1.5,,1,,,,,,,,,,,,,,
1918,10,11,14,14,42,4,3,1458,7.1,,,n,DOMINICAN REPUBLIC,,SANTO DOMINGO,18.47,-69.95,292.5310732,,,,,,,,,0.7,,1,40,F,,,,,,,,,,,,
1918,10,11,14,14,42,4,3,1458,7.1,,,n,BRITISH VIRGIN ISLANDS (UK TERRITORY),,TORTOLA ISLAND,18.667,-64.65,267.8604406,,,,,,,,,0.7,,1,40,F,,,,,,,,,,,,
1918,10,11,14,14,42,4,3,1458,7.1,,,n,USA TERRITORY,PR,AGUADILLA,18.45,-67.133,28.29607843,,,,,,,,,3.4,,1,,,32,1,,,,,,2,300,3,,
1918,10,11,14,14,42,4,3,1458,7.1,,,n,USA TERRITORY,PR,CAJA DE MUERTOS,17.867,-66.533,115.3762915,,,,,,,,,1.5,15,1,,,,,,,,,,,,,,
1918,10,11,14,14,42,4,3,1458,7.1,,,n,USA TERRITORY,PR,CAYO CARDONA,17.959,-66.365,119.638728,,,,,,,,,0.75,,1,,,,,,,,,,,,,,
1918,10,11,14,14,42,4,3,1458,7.1,,,n,USA TERRITORY,PR,BAHIA DE BOQUERON,18.463,-66.084,119.5488181,11,16,,1,0,,,,1.1,,1,20,F,,,,,,,,,,,,
1918,10,11,14,14,42,4,3,1458,7.1,,,n,USA TERRITORY,PR,GUANICA,17.983,-66.917,84.40778585,,,,,,,,,0.5,,1,,,,,,,,,,,,,,
1918,10,11,14,14,42,4,3,1458,7.1,,,n,USA TERRITORY,PR,ISABELA,18.5,-67.033,27.58883107,,,,,,,,,2,,1,,,,,,,,,,,,,,
1918,10,11,14,14,42,4,3,1458,7.1,,,n,USA TERRITORY,PR,ISLA MONA,18.08,-67.9,101.754381,,,,,,,,,4,,1,,F,,,,,,,,1,,,,
1918,10,11,14,14,42,4,3,1458,7.1,,,n,USA TERRITORY,PR,MAYAGUEZ,18.201066,-67.153,55.35557793,11,14,39,0,24,,,,1.5,,1,,,100,2,,,,,,2,,1,,
1918,10,11,14,14,42,4,3,1458,7.1,,,n,USA TERRITORY,PR,PONCE,17.983,-66.617,99.76701432,,,,,,,,,,,1,,,,,,,,,,,,,,
1918,10,11,14,14,42,4,3,1458,7.1,,,n,USA TERRITORY,PR,ARECIBO,18.448,-66.733,55.63186168,,,,,,,,,0.6,,1,,,,,,,,,,,,,,
1918,10,11,14,14,42,4,3,1458,7.1,,,n,USA TERRITORY,PR,PUNTA AGUJEREADA,18.51,-67.167,21.15838454,,,,,,,,,6,,1,,,8,1,,,,,,1,,1,,
1918,10,11,14,14,42,4,3,1458,7.1,,,n,USA TERRITORY,PR,PUNTA BORINQUEN,18.484,-67.169,24.00145114,,,,,,,,,4.5,100,1,,,,,,,,,,1,,,,
1918,10,11,14,14,42,4,3,1458,7.1,,,n,USA TERRITORY,PR,PUNTA HIGUERO,18.367,-67.267,37.76743992,,,,,,,,,5.5,,1,2,F,,,,,,,,,,,,
1918,10,11,14,14,42,4,3,1458,7.1,,,n,USA TERRITORY,PR,RIO CULEBRINAS,18.4,-67.183,33.21206554,,,,,,,,,4,,1,,,,,,,,,,,,,,
1918,10,11,14,14,42,4,3,1458,7.1,,,n,USA TERRITORY,PR,RIO GRANDE DE LOIZA,18.45,-65.883,140.6060958,,,,,,,,,1,,1,,F,,,,,,,,,,,,
1918,10,11,14,14,42,4,3,1458,7.1,,,n,USA TERRITORY,VI,ST. THOMAS: CHARLOTTE AMALIE,18.333,-64.917,243.3186232,,,,,,,,,0.45,,1,,,,,,,,,,,,,,
1918,10,11,14,14,42,4,3,1458,7.1,,,n,USA TERRITORY,VI,ST. THOMAS: KRUM BAY,18.329,-64.961,238.8175359,,,,,,,,,1.2,,1,,,,,,,,,,,,,,
1918,10,11,14,14,42,4,3,1458,7.1,,,n,USA,NJ,"ATLANTIC CITY, NJ",39.355,-74.4183,2393.112069,11,19,0,4,46,,,,0.06,,2,15,F,,,,,,,,,,,,
1918,10,11,14,14,42,4,3,1458,7.1,,,n,USA TERRITORY,PR,ALL OF PUERTO RICO,,,,,,,,,,,,,,1,,,,,,,,,4,2,,,,
1918,10,25,3,43,,3,1,1459,6.4,,,n,USA TERRITORY,PR,MONA PASSAGE,18.5,-67.75,56.98801258,,,,,,,,,,,1,,,,,,,,,,,,,,
1918,10,25,3,43,,3,1,1459,6.4,,,n,USA,TX,"GALVESTON, TX",29.3,-94.783,3044.398512,,,,,,,,,,,2,,,,,,,,,,,,,,
1918,11,8,4,38,,4,1,1460,7.8,,,n,USA,CA,"SAN FRANCISCO, CA",37.807,-122.465,6917.477249,8,14,15,9,37,,,,0.03,,2,,,,,,,,,,,,,,
1918,11,8,4,38,,4,1,1460,7.8,,,n,JAPAN,MIYAGI,AYUKAWA,38.3,141.5,1081.848559,,,,,,,,,,,,,,,,,,,,,,,,,
1918,11,8,4,38,,4,1,1460,7.8,,,n,JAPAN,"BONIN IS, TOKYO",CHICHIJIMA ISLAND,27.0939,142.1947,2103.109445,,,,,,,,,0.5,,2,,,,,,,,,,,,,,
1918,11,8,4,38,,4,1,1460,7.8,,,n,JAPAN,HOKKAIDO,HANASAKI,43.283,145.567,495.4048224,,,,,,,,,,,,,,,,,,,,,,,,,
1918,11,8,4,38,,4,1,1460,7.8,,,n,USA,CA,"SAN DIEGO, CA",32.715,-117.174,7644.944177,,,,,,,,,0.1,,2,,,,,,,,,,,,,,
1918,11,8,4,38,,4,1,1460,7.8,,,n,RUSSIA,KURIL ISLANDS,"URUP ISLAND, KURILSKIYE",45.9,150,195.1808481,,,,,,,,,,,,,,,,,,,,,,,,,
1918,11,8,4,38,,4,1,1460,7.8,,,n,CANADA,BC,"TOFINO (CLAYOQUOT),BRITISH COLUMBIA",49.153,-125.913,6001.097997,8,13,47,9,9,8,14,10,0.04,,2,15,R,,,,,,,,,,,,
1918,11,8,4,38,,4,1,1460,7.8,,,n,RUSSIA,KURIL ISLANDS,"ITURUP ISLAND, KURILSKIYE",44.9,147.5,320.0957419,,,,,,,,,,,1,,,,,,,,,,,,,,
1918,12,4,11,47,48,4,1,1461,7.8,,,n,CHILE,ATACAMA,CALDERA,-27.067,-70.833,119.3853487,,,,,,,,,5,141,1,,,,,,,,,,,,,,
1918,12,4,11,47,48,4,1,1461,7.8,,,n,USA,HI,"HONOLULU, OAHU, HI",21.3067,-157.867,10730.07751,,,,,,,,,0.07,,2,,,,,,,,,,,,,,
1918,12,4,11,47,48,4,1,1461,7.8,,,n,USA,CA,"SAN FRANCISCO, CA",37.807,-122.465,8874.541384,5,1,0,13,12,,,,,,2,,,,,,,,,,,,,,
1918,12,4,11,47,48,4,1,1461,7.8,,,n,USA,CA,"SAN DIEGO, CA",32.715,-117.174,8134.174609,,,,,,,,,0.07,,2,,,,,,,,,,,,,,
1919,1,1,1,33,42,1,1,1465,7.4,,,n,JAPAN,KANAGAWA,ABURATSUBO,35.167,139.617,3314.070233,,,,,,,,,0.04,,2,,,,,,,,,,,,,,
1919,1,1,1,33,42,1,1,1465,7.4,,,n,JAPAN,MIYAZAKI,HOSOSHIMA,32.433,131.667,2767.918977,,,,,,,,,0.13,,2,,,,,,,,,,,,,,
1919,1,1,1,33,42,1,1,1465,7.4,,,n,JAPAN,WAKAYAMA,KUSHIMOTO,33.467,135.783,2994.180495,,,,,,,,,0.44,,2,,,,,,,,,,,,,,
1919,4,30,7,17,17.3,4,1,1472,8.1,,,y,USA TERRITORY,AS,"PAGO PAGO, AMERICAN SAMOA",-14.2766,-170.689,491.378469,,,,,,,,,2.4,,1,,F,,,,,,,,,,,,
1919,4,30,7,17,17.3,4,1,1472,8.1,,,n,USA,CA,"SAN DIEGO, CA",32.715,-117.174,8159.913247,30,18,41,11,24,,,,0.03,,2,,R,,,,,,,,,,,,
1919,4,30,7,17,17.3,4,1,1472,8.1,,,n,USA,CA,"SAN FRANCISCO, CA",37.807,-122.465,8125.817007,30,18,40,11,23,,,,,,2,,,,,,,,,,,,,,
1919,4,30,7,17,17.3,4,1,1472,8.1,,,n,USA,HI,"HILO, HAWAII, HI",19.7303,-155.0553,4624.100777,,,,,,,,,0.6,,2,70,,,,,,,,,,,,,
1919,4,30,7,17,17.3,4,1,1472,8.1,,,n,USA,HI,"HONOLULU, OAHU, HI",21.3067,-157.867,4668.624511,30,13,47,6,30,,,,0.1,,2,25,,,,,,,,,,,,,
1919,4,30,7,17,17.3,4,1,1472,8.1,,,n,USA,HI,"PUNALUU, HAWAII, HI",19.139,-155.507,4544.651212,30,17,29,10,12,,,,0.9,,2,90,F,,,,,,,,,,,,
1919,4,30,7,17,17.3,4,1,1472,8.1,,,n,SAMOA,,"APIA, UPOLU ISLAND",-13.8268,-171.7613,507.2056655,30,8,11,0,54,,,,0.4,,2,,,,,,,,,,,,,,
1919,4,30,7,17,17.3,4,1,1472,8.1,,,n,TONGA,,HA'APAI,-19.78,-174.34,248.7539811,30,7,53,0,36,,,,2.5,,1,,,,,,,,,,,,,,
1919,4,30,7,17,17.3,4,1,1472,8.1,,,n,CANADA,BC,"TOFINO (CLAYOQUOT),BRITISH COLUMBIA",49.153,-125.913,8778.989463,30,20,0,12,43,30,23,58,0.08,,2,10,F,,,,,,,,,,,,
1919,5,6,19,41,13,3,1,1474,8.2,,,n,PAPUA NEW GUINEA,EAST NEW BRITAIN,"RABAUL, NEW BRITAIN",-4.22,152.18,197.2753926,,,,,,,,,,,1,,,,,,,,,,,,,,
1919,5,6,19,41,13,3,1,1474,8.2,,,n,PAPUA NEW GUINEA,EAST NEW BRITAIN,"KOKOPO, NEW BRITAIN",-4.35,152.267,183.7142079,,,,,,,,,,,1,,,,,,,,,,,,,,
1919,6,29,23,14,13.4,3,1,5466,6.6,,,n,NICARAGUA,,CORINTO,12.48,-87.17,123.0187613,,,,,,,,,,,1,,,,,,,,,,,,,,
1919,6,29,23,14,13.4,3,1,5466,6.6,,,n,NICARAGUA,,GULF OF FONSECA,,,,,,,,,,,,,,1,,,,,,,,,,,,,,
1920,2,2,11,22,18,1,1,1482,7.7,,,n,PAPUA NEW GUINEA,WEST NEW BRITAIN,"GASMATA, NEW BRITAIN",-6.27,150.3333,44.79568949,,,,,,,,,,,1,,,,,,,,,,,,,,
1920,8,20,16,15,38,3,1,1485,7,,,n,CHILE,BIOBIO,TALCAHUANO,-36.683,-73.1,150.4017438,,,,,,,,,1.4,,1,,,,,,,,,,,,,,
1920,9,20,14,39,,3,1,1486,7.8,,,n,SAMOA,,"APIA, UPOLU ISLAND",-13.8268,-171.7613,2203.636558,20,19,0,,,,,,,,2,,,,,,,,,,,,,,
1920,9,20,14,39,,3,1,1486,7.8,,,n,NEW CALEDONIA,,"OUGNAT, OUVEA",-20.656,166.579,219.5167532,,,,,,,,,,,1,,,,,,,,,,1,,,,
1920,12,16,12,5,54.7,0,1,3541,8.3,,,n,NORWAY,,NORDFJORDEID,61.9,6.02,6944.465528,,,,,,,,,0.15,,7,,,,,,,,,,,,,,
1920,12,16,12,5,54.7,0,1,3541,8.3,,,n,NORWAY,,ROMARHEIM,60.73,5.65,7021.274492,,,,,,,,,0.2,,7,,,,,,,,,,,,,,
1920,12,16,12,5,54.7,0,1,3541,8.3,,,n,NORWAY,,SKJELJANGER FYR,60.6,4.95,7061.896186,,,,,,,,,0.75,,7,,,,,,,,,,,,,,
1920,12,16,12,5,54.7,0,1,3541,8.3,,,n,NORWAY,,BERGEN,60.383,5.333,7054.591888,,,,,,,,,0.4,,7,,,,,,,,,,,,,,
1920,12,18,2,1,57,1,1,1488,5.6,,,n,ALBANIA,,"SAZAN ISLAND (SAZANIT, SASENO)",40.5,19.284,18.30983235,,,,,,,,,,,1,,,,3,,,,,,3,,3,,
1921,5,14,11,17,45,2,1,1489,6.2,,,n,INDONESIA,WEST KALIMANTAN,SEKURAH,1.494,109.213,970.8263877,,,,,,,,,1,,1,,,,,,,,,,2,,,,
1921,9,11,4,1,38,4,1,1490,7.5,,,n,INDONESIA,CENTRAL JAVA,"TJILATJAP, SUMATRA",-7.733,109.02,421.7324908,,,,,,,,,0.1,,2,,,,,,,,,,,,,,
1921,9,11,4,1,38,4,1,1490,7.5,,,n,INDONESIA,YOGYAKARTA,PARANG TRITIS,-8.017,110.35,337.5633388,,,,,,,,,,,1,,,,,,,,,,,,,,
1921,9,11,4,1,38,4,1,1490,7.5,,,n,VIETNAM,,SPRATLY ISLANDS,8.6833,112,2179.504778,,,,,,,,,,,1,,,,,,,,,,,,,,
1921,11,11,18,36,8,3,1,1491,7.5,,,n,PHILIPPINES,,"MANAY, MINDANAO ISLAND",7.215,126.54,100.5658588,,,,,,,,,,,1,,,,,,,,,,1,,,,1
1921,11,11,18,36,8,3,1,1491,7.5,,,n,PHILIPPINES,,"MANGANITU, SANGIHE ISLAND",3.583,125.517,515.32162,,,,,,,,,,,1,,,,,,,,,,,,,,
1921,11,11,18,36,8,3,1,1491,7.5,,,n,PHILIPPINES,,"MATI, MINDANAO ISLAND",6.953056,126.216111,144.5423782,,,,,,,,,,,1,,,,,,,,,,,,,,
1921,11,11,18,36,8,3,1,1491,7.5,,,n,PHILIPPINES,,"CARAGA BAY, MINDANAO ISLAND",7.327,126.564,88.6218005,,,,,,,,,,,1,,,,,,,,,,,,,,
1922,1,19,21,58,58.5,3,1,1495,6.9,,,n,PAPUA NEW GUINEA,,SUMAI,-8.5,143.3,155.6965902,,,,,,,,,1.8,,1,,,,,,,,,,,,,,
1922,2,27,20,39,50,2,1,1498,6.3,,,n,PHILIPPINES,,MACTAN ISLAND,10.2,123.94,17.53146473,,,,,,,,,,,1,,,,,,,,,,,,,,
1922,2,27,20,39,50,2,1,1498,6.3,,,n,PHILIPPINES,,CEBU ISLAND,10.33,123.96,21.02339874,,,,,,,,,,,1,,,,,,,,,,,,,,
1922,2,27,20,39,50,2,1,1498,6.3,,,n,PHILIPPINES,,NORTHERN CEBU ISLAND,11.28,124.06,119.5419998,,,,,,,,,,,1,,,,,,,,,,,,,,
1922,3,1,9,10,23,2,1,1499,6,,,n,PHILIPPINES,,BACONG,9.95,123.15,105.646408,,,,,,,,,,,1,,,,,,,,,,,,,,
1922,9,1,19,16,6,1,1,1503,7.6,,,n,CHINA,,FUJIAN PROVINCE,26,119.5,301.724191,,,,,,,,,,,1,,,,,,,,,,,,,,
1922,11,11,4,32,51,4,1,1505,8.5,,,n,USA TERRITORY,AS,"PAGO PAGO, AMERICAN SAMOA",-14.2766,-170.689,10299.43965,,,,,,,,,0.9,,1,20,,,,,,,,,1,,,,
1922,11,11,4,32,51,4,1,1505,8.5,,,n,AUSTRALIA,,SYDNEY,-33.85,151.233,11884.48292,,,,,,,,,0.2,,2,30,,,,,,,,,,,,,
1922,11,11,4,32,51,4,1,1505,8.5,,,n,USA,CA,"SAN DIEGO, CA",32.715,-117.174,8402.413989,11,17,19,12,46,,,,0.2,,2,30,R,,,,,,,,,,,,
1922,11,11,4,32,51,4,1,1505,8.5,,,n,USA,CA,"SAN FRANCISCO, CA",37.807,-122.465,9143.306667,11,18,15,13,42,,,,0.18,,2,30,R,,,,,,,,,,,,
1922,11,11,4,32,51,4,1,1505,8.5,,,n,CHILE,ANTOFAGASTA,ANTOFAGASTA,-23.65,-70.404,517.3473043,,,,,,,,,,,1,,,,,,,,,,,,,,
1922,11,11,4,32,51,4,1,1505,8.5,,,n,CHILE,ATACAMA,CALDERA,-27.067,-70.833,166.8007636,11,5,3,0,30,,,,7,600,1,,,,,,,,,,1,,1,,
1922,11,11,4,32,51,4,1,1505,8.5,,,n,CHILE,ATACAMA,CHANARAL,-26.38,-70.67,226.9048142,11,6,,1,0,,,,9,,1,,,,,,,,,,1,14,1,4,1
1922,11,11,4,32,51,4,1,1505,8.5,,,n,CHILE,COQUIMBO,COQUIMBO,-29.95,-71.3353,233.597092,,,,,,,,,7,2000,1,,,200,3,,,,,,2,,3,,
1922,11,11,4,32,51,4,1,1505,8.5,,,n,CHILE,VALPARAISO,SAN AMBROSIO ISLANDS,-26.34,-79.88,1015.499378,,,,,,,,,,,1,,,,,,,,,,,,,,
1922,11,11,4,32,51,4,1,1505,8.5,,,n,CHILE,VALPARAISO,SAN FELIX ISLANDS,-26.29,-80.1,1038.153186,,,,,,,,,,,1,,,,,,,,,,,,,,
1922,11,11,4,32,51,4,1,1505,8.5,,,n,USA,HI,"HILO, HAWAII, HI",19.7303,-155.0553,10583.26793,11,19,3,14,30,,,,2.1,,2,20,,,,,,,,,1,,,,
1922,11,11,4,32,51,4,1,1505,8.5,,,n,USA,HI,"HONOLULU, OAHU, HI",21.3067,-157.867,10923.99252,11,19,33,15,0,,,,0.3,,2,23,R,,,,,,,,,,,,
1922,11,11,4,32,51,4,1,1505,8.5,,,n,JAPAN,KANAGAWA,ABURATSUBO,35.167,139.617,17143.03189,12,3,18,22,46,,,,0.03,,2,,,,,,,,,,,,,,
1922,11,11,4,32,51,4,1,1505,8.5,,,n,JAPAN,MIYAGI,AYUKAWA,38.3,141.5,16918.39749,12,2,46,22,14,,,,0.3,,2,,,,,,,,,,,,,,
1922,11,11,4,32,51,4,1,1505,8.5,,,n,JAPAN,CHIBA,CHOSHI,35.75,140.867,17022.06912,,,,,,,,,,,2,60,,,,,,,,,,,,,
1922,11,11,4,32,51,4,1,1505,8.5,,,n,JAPAN,HOKKAIDO,HANASAKI,43.2781,145.5678,16449.1398,12,2,22,21,50,,,,0.3,,2,,,,,,,,,,,,,,
1922,11,11,4,32,51,4,1,1505,8.5,,,n,JAPAN,MIYAZAKI,HOSOSHIMA,32.433,131.667,17912.4982,12,4,24,23,52,,,,0.2,,2,,,,,,,,,,,,,,
1922,11,11,4,32,51,4,1,1505,8.5,,,n,JAPAN,HYOGO,KOBE,34.683,135.183,17551.5835,,,,,,,,,,,2,60,,,,,,,,,,,,,
1922,11,11,4,32,51,4,1,1505,8.5,,,n,JAPAN,WAKAYAMA,KUSHIMOTO,33.467,135.783,17516.51926,12,4,18,23,46,,,,0.3,,2,,,,,,,,,,,,,,
1922,11,11,4,32,51,4,1,1505,8.5,,,n,JAPAN,NAGASAKI,NAGASAKI,32.733,129.867,18074.64986,,,,,,,,,,,2,60,,,,,,,,,,,,,
1922,11,11,4,32,51,4,1,1505,8.5,,,n,JAPAN,IWATE,OFUNATO,39.017,141.75,16879.93955,,,,,,,,,,,1,,,,,,,,,,,30,1,,
1922,11,11,4,32,51,4,1,1505,8.5,,,n,JAPAN,OSAKA,OSAKA,35.95,137.27,17339.05846,,,,,,,,,,,2,60,,,,,,,,,,,,,
1922,11,11,4,32,51,4,1,1505,8.5,,,n,TAIWAN,,TAKAO,22.63,120.27,18828.51958,12,6,20,25,48,,,,0.03,,2,,,,,,,,,,,,,,
1922,11,11,4,32,51,4,1,1505,8.5,,,n,NEW ZEALAND,,NEW BRIGHTON,,,,,,,,,,,,0.1,,,,,,,,,,,,,,,,
1922,11,11,4,32,51,4,1,1505,8.5,,,n,NEW ZEALAND,,PORT CHALMERS,-45.82,170.65,9787.101162,,,,,,,,,0.18,,1,,,,,,,,,,,,,,
1922,11,11,4,32,51,4,1,1505,8.5,,,n,NEW ZEALAND,,TIMARU,-44.392,171.254,9852.147135,,,,,,,,,0.18,,1,,,,,,,,,,,,,,
1922,11,11,4,32,51,4,1,1505,8.5,,,n,SAMOA,,"APIA, UPOLU ISLAND",-13.83,-171.767,10424.93344,11,18,39,14,6,,,,,,1,,,,,,,,,,,,,,
1922,11,11,4,32,51,4,1,1505,8.5,,,n,PERU,CALLAO,CALLAO,-12.05,-77.15,1951.996371,,,,,,,,,2.4,,1,,,,,,,,,,,,,,
1922,11,11,4,32,51,4,1,1505,8.5,,,n,PHILIPPINES,,ZAMBOANGA,6.91,122.074,17330.99266,,,,,,,,,0.1,,2,103,,,,,,,,,,,,,
1922,11,11,4,32,51,4,1,1505,8.5,,,n,TAIWAN,,KEELUNG,25.15,121.75,18823.22377,12,5,48,25,16,,,,0.03,,2,,,,,,,,,,,,,,
1922,11,11,4,32,51,4,1,1505,8.5,,,n,TAIWAN,,TANSHUI,25.172,121.4429,18853.13613,,,,,,,,,,,2,60,,,,,,,,,,,,,
1922,11,11,4,32,51,4,1,1505,8.5,,,y,USA,CA,"LOS ANGELES, CA",33.717,-118.267,8553.183998,,,,,,,,,,,1,,,,,,,,,,,,,,
1922,11,11,4,32,51,4,1,1505,8.5,,,y,USA,CA,"SANTA CRUZ, CA",36.97,-122.02,9049.721335,,,,,,,,,,,1,15,,,,,,,,,,,,,
1922,11,11,4,32,51,4,1,1505,8.5,,,n,CANADA,BC,"TOFINO (CLAYOQUOT),BRITISH COLUMBIA",49.153,-125.913,10219.59402,11,20,30,15,57,12,3,33,0.14,,2,20,R,,,,,,,,,,,,
1922,11,11,4,32,51,4,1,1505,8.5,,,n,PHILIPPINES,,ISABELA,6.71,121.973,17315.95207,,,,,,,,,,,2,,,,,,,,,,,,,,
1922,11,11,4,32,51,4,1,1505,8.5,,,n,CHILE,ATACAMA,HUASCO,-28.467,-71.22,135.462809,,,,,,,,,,,1,,,,,,,,,,,,,,
1922,12,25,3,33,10,3,1,1506,6.3,,,n,NEW ZEALAND,,CASTLECLIFF BEACH,-39.95,174.98,376.9299863,,,,,,,,,,,1,,,,,,,,,,,,,,
1922,12,25,3,33,10,3,1,1506,6.3,,,n,NEW ZEALAND,,LEITHFIELD BEACH,-43.22,174.78,146.9277763,,,,,,,,,0.4,,1,,,,,,,,,,,,,,
1922,12,25,3,33,10,3,1,1506,6.3,,,n,NEW ZEALAND,,WAIKUKU BEACH,,,,,,,,,,,,,,,,,,,,,,,,,,,,
1923,1,22,9,4,21.3,0,1,1507,7.1,,,n,USA,CA,"SAN FRANCISCO, CA",37.807,-122.465,370.7928148,22,9,30,0,26,,,,0.03,,7,,,,,,,,,,,,,,
1923,2,3,16,1,50,4,1,1508,8.4,,,y,USA,CA,"LOS ANGELES, CA",33.717,-118.267,6499.041611,3,16,11,10,,,,,,,1,,,,,,,,,,,,,,
1923,2,3,16,1,50,4,1,1508,8.4,,,n,USA,CA,"SAN DIEGO, CA",32.715,-117.174,6649.809525,4,2,1,10,0,,,,0.2,,2,10,,,,,,,,,,,,,
1923,2,3,16,1,50,4,1,1508,8.4,,,n,USA,CA,"SAN FRANCISCO, CA",37.807,-122.465,5908.893021,4,0,31,8,31,,,,0.1,,2,16,R,,,,,,,,,,,,
1923,2,3,16,1,50,4,1,1508,8.4,,,y,USA,CA,"SANTA CRUZ, CA",36.97,-122.02,6002.497046,,,,,,,,,,,1,,,,,,,,,,,,,,
1923,2,3,16,1,50,4,1,1508,8.4,,,n,USA,HI,"HALEIWA, OAHU, HI",21.593,-158.1055,5027.56315,3,22,,6,,,,,3.7,,2,,,,,,,,,,,,,,
1923,2,3,16,1,50,4,1,1508,8.4,,,n,USA,HI,"HILO, HAWAII, HI",19.733,-155.067,5372.739141,3,22,31,6,30,,,,6.1,,1,,F,1,1,,,,,,1,,2,,2
1923,2,3,16,1,50,4,1,1508,8.4,,,n,USA,HI,"HONOLULU, OAHU, HI",21.3067,-157.867,5067.605553,3,22,,6,,,,,0.9,,2,23,F,,,,,,,,,,,,
1923,2,3,16,1,50,4,1,1508,8.4,,,n,USA,HI,"KAHULUI, MAUI, HI",20.895,-156.477,5184.511319,,,,,,,,,3.5,,2,,F,,,,,,,,1,,2,,
1923,2,3,16,1,50,4,1,1508,8.4,,,n,JAPAN,MIYAGI,AYUKAWA,38.3,141.5,2301.055011,3,18,9,2,8,,,,0.33,,2,,,,,,,,,,,,,,
1923,2,3,16,1,50,4,1,1508,8.4,,,n,JAPAN,HOKKAIDO,HANASAKI,43.2781,145.5678,1650.986699,3,18,19,2,18,,,,0.23,,2,,,,,,,,,,,,,,
1923,2,3,16,1,50,4,1,1508,8.4,,,n,JAPAN,MIYAZAKI,HOSOSHIMA,32.433,131.667,3336.594069,3,17,53,1,52,,,,0.2,,2,,,,,,,,,,,,,,
1923,2,3,16,1,50,4,1,1508,8.4,,,n,JAPAN,WAKAYAMA,KUSHIMOTO,33.467,135.783,3029.987067,3,20,55,4,54,,,,0.5,,2,,,,,,,,,,,,,,
1923,2,3,16,1,50,4,1,1508,8.4,,,n,RUSSIA,KAMCHATKA,"AVACHA BAY, KAMCHATKA",52.97,158.5,213.0804404,,,,,,,,,,,1,,,,,,,,,,,,,,
1923,2,3,16,1,50,4,1,1508,8.4,,,n,RUSSIA,KAMCHATKA,KOLYGIR BAY,53.42,159.85,125.4789076,,,,,,,,,8,,1,,,,,,,,,,,,,,
1923,2,3,16,1,50,4,1,1508,8.4,,,n,RUSSIA,KAMCHATKA,"OSTROVNOYE, KAMCHATKA",53.254,159.5689,149.4366204,,,,,,,,,,,1,,,2,1,,,,,,1,,2,,
1923,2,3,16,1,50,4,1,1508,8.4,,,n,RUSSIA,KAMCHATKA,"SEMJACHIK, KAMCHATKA",54.117,159.983,51.96578324,,,,,,,,,6,,1,,,,,,,,,,,,,,
1923,2,3,16,1,50,4,1,1508,8.4,,,n,RUSSIA,KAMCHATKA,"NALYCHEVO, KAMCHATKA",53.155,159.235,169.058355,,,,,,,,,,,1,,,,,,,,,,,,,,
1923,2,3,16,1,50,4,1,1508,8.4,,,n,RUSSIA,KAMCHATKA,"UST'KAMCHATSK, KAMCHATKA",56.37,162.519,246.5312344,,,,,,,,,,,1,,,,,,,,,,1,,1,,
1923,2,3,16,1,50,4,1,1508,8.4,,,n,SAMOA,,"APIA, UPOLU ISLAND",-13.8268,-171.7613,8011.760726,4,1,43,9,42,,,,,,2,,,,,,,,,,,,,,
1923,2,3,16,1,50,4,1,1508,8.4,,,n,USA,HI,ALL OF HAWAII,,,,,,,,,,,,,,1,,,,,,,,,1.5,2,,,,
1923,2,3,16,1,50,4,1,1508,8.4,,,n,CANADA,BC,"TOFINO (CLAYOQUOT),BRITISH COLUMBIA",49.153,-125.913,4875.018282,3,23,54,7,52,4,3,50,0.14,,2,18,R,,,,,,,,,,,,
1923,3,2,16,48,52,3,1,1512,7.2,,,n,PHILIPPINES,,"COTABATO, MINDANAO ISLAND",7.217,124.248,83.89726439,,,,,,,,,,,1,,,,,,,,,,,,,,
1923,4,13,15,31,2,4,1,1517,7.2,,,n,USA,CA,"LOS ANGELES, CA",33.717,-118.267,6321.562688,,,,,,,,,1.8,,1,,,,,,,,,,1,,,,
1923,4,13,15,31,2,4,1,1517,7.2,,,n,USA,CA,"SAN DIEGO, CA",32.715,-117.174,6472.209936,14,5,48,14,18,,,,0.1,,2,43,,,,,,,,,,,,,
1923,4,13,15,31,2,4,1,1517,7.2,,,n,USA,CA,"SAN FRANCISCO, CA",37.807,-122.465,5730.353754,14,0,54,9,24,,,,0.15,,2,21,F,,,,,,,,,,,,
1923,4,13,15,31,2,4,1,1517,7.2,,,n,RUSSIA,KAMCHATKA,"BERING ISLAND, COMMANDER ISLANDS",55,166.2,286.0726017,,,,,,,,,4,,1,,,,,,,,,,,,,,
1923,4,13,15,31,2,4,1,1517,7.2,,,n,USA,HI,"HILO, HAWAII, HI",19.7303,-155.0553,5373.642172,13,23,6,7,36,,,,0.3,,2,,,,,,,,,,,,,,
1923,4,13,15,31,2,4,1,1517,7.2,,,n,USA,HI,"HONOLULU, OAHU, HI",21.3067,-157.867,5076.425,13,22,6,6,36,,,,0.2,,2,38,,,,,,,,,,,,,
1923,4,13,15,31,2,4,1,1517,7.2,,,n,JAPAN,MIYAGI,AYUKAWA,38.3,141.5,2548.564983,13,19,42,4,12,,,,0.17,,2,,,,,,,,,,,,,,
1923,4,13,15,31,2,4,1,1517,7.2,,,n,JAPAN,HOKKAIDO,HANASAKI,43.283,145.567,1897.590463,13,19,6,3,36,,,,0.07,,2,,,,,,,,,,,,,,
1923,4,13,15,31,2,4,1,1517,7.2,,,n,RUSSIA,KAMCHATKA,"UST'KAMCHATSK, KAMCHATKA",56.237,162.519,29.30818667,,,,,,,,,20,,1,,,18,1,,,,,,3,,3,,
1923,4,13,15,31,2,4,1,1517,7.2,,,y,SOUTH KOREA,,"E. COAST, KOREA",,,,,,,,,,,,,,1,,,400,3,,,,,,,,,,
1923,4,13,15,31,2,4,1,1517,7.2,,,n,CANADA,BC,"TOFINO (CLAYOQUOT),BRITISH COLUMBIA",49.153,-125.913,4668.912458,14,0,27,8,56,14,8,6,0.08,,2,40,R,,,,,,,,,,,,
1923,6,1,17,24,0,4,1,1521,7.3,,,n,JAPAN,MIYAGI,AYUKAWA,38.3,141.5,322.9368693,1,18,30,1,6,,,,0.15,,2,,,,,,,,,,,,,,
1923,7,18,2,24,19,1,1,1522,5.5,,,n,PHILIPPINES,,MAMBAJAO,9.2503,124.7161,31.67376575,,,,,,,,,,,1,,,,,,,,,,,,,,
1923,9,1,2,58,37,4,1,1526,7.9,,,n,USA,HI,"HONOLULU, OAHU, HI",21.3067,-157.867,6235.579184,,,,,,,,,0.03,,2,21,,,,,,,,,,,,,
1923,9,1,2,58,37,4,1,1526,7.9,,,n,JAPAN,SHIZUOKA,AJIRO,35.04,139.07,39.78128275,,,,,,,,,7.2,,1,,,,,,,,,,1,,1,,
1923,9,1,2,58,37,4,1,1526,7.9,,,n,JAPAN,SHIZUOKA,AKAZAWA,,,,,,,,,,,,3,,1,,,,,,,,,,,,,,
1923,9,1,2,58,37,4,1,1526,7.9,,,n,JAPAN,SHIZUOKA,ARAI,34.68,137.56,183.3511625,,,,,,,,,3,,1,,,,,,,,,,,,,,
1923,9,1,2,58,37,4,1,1526,7.9,,,n,JAPAN,SHIZUOKA,ATAMI,35.089,139.069,39.31882562,,,,,,,,,12,,1,,,60,2,,,,,,2,155,3,,2
1923,9,1,2,58,37,4,1,1526,7.9,,,n,JAPAN,MIYAGI,AYUKAWA,38.3,141.5,397.5188939,1,5,6,2,8,,,,0.2,,2,26,,,,,,,,,,,,,
1923,9,1,2,58,37,4,1,1526,7.9,,,n,JAPAN,CHIBA,CHIBA PREFECTURE,35.71,140.16,90.412791,1,3,26,0,27,,,,,,1,,,,,,,,,,1,48,1,,
1923,9,1,2,58,37,4,1,1526,7.9,,,n,JAPAN,CHIBA,CHIKURA,34.95,139.56,17.51885978,,,,,,,,,2,,1,,,,,,,,,,,,,,
1923,9,1,2,58,37,4,1,1526,7.9,,,n,JAPAN,CHIBA,CHOSHI,35.75,140.867,143.5667815,1,3,40,0,41,,,,0.3,,2,45,R,,,,,,,,,,,,
1923,9,1,2,58,37,4,1,1526,7.9,,,n,JAPAN,KANAGAWA,ENOSHIMA ISLAND,35.3,139.48,22.26347127,,,,,,,,,5,,1,,,,,,,,,,,,,,
1923,9,1,2,58,37,4,1,1526,7.9,,,n,JAPAN,SHIZUOKA,FUJIWARA,35.06,139.03,43.09270229,,,,,,,,,7.2,,1,,,,,,,,,,,,,,
1923,9,1,2,58,37,4,1,1526,7.9,,,n,JAPAN,CHIBA,FUNABASHI,35.693,139.983,79.08140069,,,,,,,,,0.5,,1,,,,,,,,,,,,,,
1923,9,1,2,58,37,4,1,1526,7.9,,,n,JAPAN,CHIBA,FUTSU,35.305,139.819,36.89325032,,,,,,,,,0.6,,1,,,,,,,,,,,,,,
1923,9,1,2,58,37,4,1,1526,7.9,,,n,JAPAN,TOKYO,GOFUKUBASHI,35.683,139.767,69.08136037,1,3,41,0,42,,,,0.52,,2,,,,,,,,,,,,,,
1923,9,1,2,58,37,4,1,1526,7.9,,,n,JAPAN,,HAMADA,,,,,,,,,,,,3.9,,1,,,,,,,,,,,,,,
1923,9,1,2,58,37,4,1,1526,7.9,,,n,JAPAN,,HASAMA,,,,,,,,,,,,1.5,,1,,,,,,,,,,,,,,
1923,9,1,2,58,37,4,1,1526,7.9,,,n,JAPAN,SHIZUOKA,HATSUSHIMA ISLAND,35.04,139.17,30.82666228,,,,,,,,,1.8,,1,,,,,,,,,,,,,,
1923,9,1,2,58,37,4,1,1526,7.9,,,n,JAPAN,KANAGAWA,HAYAMA,35.267,139.567,19.50680101,,,,,,,,,5,,1,,,,,,,,,,1,,,,
1923,9,1,2,58,37,4,1,1526,7.9,,,n,JAPAN,AKITA,HONJO,39.42,140.06,482.0084526,1,3,1,0,2,,,,0.27,,2,,,,,,,,,,,,,,
1923,9,1,2,58,37,4,1,1526,7.9,,,n,JAPAN,MIYAZAKI,HOSOSHIMA,32.433,131.667,783.3024404,1,4,50,1,52,,,,0.32,,2,58,R,,,,,,,,,,,,
1923,9,1,2,58,37,4,1,1526,7.9,,,n,JAPAN,CHIBA,HOTA,35.133,139.85,32.11485744,,,,,,,,,3,,1,,,,,,,,,,,,,,
1923,9,1,2,58,37,4,1,1526,7.9,,,n,JAPAN,SHIZUOKA,IMAM'URA,35.11,139.1,36.48540772,,,,,,,,,6,,1,,,,,,,,,,,,,,
1923,9,1,2,58,37,4,1,1526,7.9,,,n,JAPAN,MIYAGI,ISHINOMAKI,38.417,141.267,400.4639079,1,4,28,1,30,,,,,,,,,,,,,,,,,,,,
1923,9,1,2,58,37,4,1,1526,7.9,,,n,JAPAN,SHIZUOKA,ITO,34.97,139.07,41.80379832,,,,,,,,,9,,1,,,,,,,,,,2,300,3,,
1923,9,1,2,58,37,4,1,1526,7.9,,,n,JAPAN,IBARAKI,IWAI,36.333,140.583,168.279435,,,,,,,,,3,,1,,,,,,,,,,,,,,
1923,9,1,2,58,37,4,1,1526,7.9,,,n,JAPAN,,IZUMISAN REGION,,,,,,,,,,,,2,,1,,,,,,,,,,,,,,
1923,9,1,2,58,37,4,1,1526,7.9,,,n,JAPAN,,KAKISAKI,,,,,,,,,,,,4.6,,1,,,,,,,,,,,,,,
1923,9,1,2,58,37,4,1,1526,7.9,,,n,JAPAN,KANAGAWA,KAMAKURA,35.309,139.55,23.63014612,,,,,,,,,6,,1,,,150,3,,,,,,,,,,
1923,9,1,2,58,37,4,1,1526,7.9,,,n,JAPAN,,KANETA,,,,,,,,,,,,3,,1,,,,,,,,,,,,,,
1923,9,1,2,58,37,4,1,1526,7.9,,,n,JAPAN,,KAMITAGA,,,,,,,,,,,,4.5,,1,,,,,,,,,,,,,,
1923,9,1,2,58,37,4,1,1526,7.9,,,n,JAPAN,CHIBA,KAMOGAWA,35.1,140.1,54.70609936,,,,,,,,,1.5,,1,,,,,,,,,,,,,,
1923,9,1,2,58,37,4,1,1526,7.9,,,n,JAPAN,SHIZUOKA,KANAYA,34.82,138.14,128.0363261,,,,,,,,,1,,1,,,,,,,,,,,,,,
1923,9,1,2,58,37,4,1,1526,7.9,,,n,JAPAN,KANAGAWA,KATASE,35.309,139.483,23.23898071,,,,,,,,,1.5,,1,,,50,1,,,,,,,,,,
1923,9,1,2,58,37,4,1,1526,7.9,,,n,JAPAN,CHIBA,KATSUURA,35.133,140.25,68.4667376,,,,,,,,,1.2,,1,,,,,,,,,,,,,,
1923,9,1,2,58,37,4,1,1526,7.9,,,n,JAPAN,FUKUI,KATSUYAMA,36.08,136.49,293.6443262,,,,,,,,,2.2,,1,,,,,,,,,,,,,,
1923,9,1,2,58,37,4,1,1526,7.9,,,n,JAPAN,SHIZUOKA,KAWANA,34.88,139.08,45.45417258,,,,,,,,,6,,1,,,,,,,,,,,,,,
1923,9,1,2,58,37,4,1,1526,7.9,,,n,JAPAN,,KAWATSU,,,,,,,,,,,,3,,1,,,,,,,,,,,,,,
1923,9,1,2,58,37,4,1,1526,7.9,,,n,JAPAN,CHIBA,KISARAZU,35.39,139.94,51.37020621,,,,,,,,,1.8,,1,,,,,,,,,,,,,,
1923,9,1,2,58,37,4,1,1526,7.9,,,n,JAPAN,SHIZUOKA,KOURA,34.667,134.667,444.3786202,,,,,,,,,2.1,,1,,,,,,,,,,,,,,
1923,9,1,2,58,37,4,1,1526,7.9,,,n,JAPAN,,KOKE,,,,1,6,46,3,48,,,,,,,,,,,,,,,,,,,,
1923,9,1,2,58,37,4,1,1526,7.9,,,n,JAPAN,CHIBA,KOMINATO,35.15,140.18,62.22901224,,,,,,,,,1.8,,1,,,,,,,,,,,,,,
1923,9,1,2,58,37,4,1,1526,7.9,,,n,JAPAN,KANAGAWA,KUGENUMA,35.2,139.28,22.91185526,,,,,,,,,6,,1,,,,,,,,,,,,,,
1923,9,1,2,58,37,4,1,1526,7.9,,,n,JAPAN,WAKAYAMA,KUSHIMOTO,33.467,135.783,387.1897626,1,4,0,1,2,,,,0.48,,2,22,R,,,,,,,,,,,,
1923,9,1,2,58,37,4,1,1526,7.9,,,n,JAPAN,SHIZUOKA,KUSUMI,34.97,139.12,37.55447205,,,,,,,,,9,,1,,,,,,,,,,2,300,2,300,3
1923,9,1,2,58,37,4,1,1526,7.9,,,n,JAPAN,TSHIBA,MAKUCHI,35.39,140.03,57.98331422,,,,,,,,,4.5,,1,,,,,,,,,,,,,,
1923,9,1,2,58,37,4,1,1526,7.9,,,n,JAPAN,KANAGAWA,MANAZURU,35.15,139.15,32.38085224,,,,,,,,,6,,1,,,,,,,,,,,,,,
1923,9,1,2,58,37,4,1,1526,7.9,,,n,JAPAN,,MATSUVA,,,,,,,,,,,,1.5,,1,,,,,,,,,,,,,,
1923,9,1,2,58,37,4,1,1526,7.9,,,n,JAPAN,CHIBA,MERA,34.917,139.817,35.34727516,,,,,,,,,6,,1,,,,,,,,,,1,,,,
1923,9,1,2,58,37,4,1,1526,7.9,,,n,JAPAN,KANAGAWA,MIURA,35.14,139.619,11.72004831,,,,,,,,,3,,1,,,,,,,,,,,,,,
1923,9,1,2,58,37,4,1,1526,7.9,,,n,JAPAN,IWATE,MINATO,34.63,138.91,75.02698371,,,,,,,,,2,,1,,,,,,,,,,,,,,
1923,9,1,2,58,37,4,1,1526,7.9,,,n,JAPAN,WAKAYAMA,MISAKI,35.66,139.55,62.2965122,,,,,,,,,3,,1,,,,,,,,,,1,,,,
1923,9,1,2,58,37,4,1,1526,7.9,,,n,JAPAN,TOKYO,MITAKA,35.66,139.55,62.2965122,1,4,28,1,30,,,,4.5,,1,,,,,,,,,,,,,,
1923,9,1,2,58,37,4,1,1526,7.9,,,n,JAPAN,CHIBA,NIEMONIJIMA,35.0775,140.10419,55.15221325,,,,,,,,,2,,1,,,,,,,,,,,,,,
1923,9,1,2,58,37,4,1,1526,7.9,,,n,JAPAN,KANAGAWA,OISO,35.31,139.41,24.69768227,,,,,,,,,1.8,,1,,,,,,,,,,2,,,,
1923,9,1,2,58,37,4,1,1526,7.9,,,n,JAPAN,TOKYO,OKADA,34.783,139.383,36.75615665,,,,,,,,,12,,1,,,14,1,,,,,,1,4,1,,
1923,9,1,2,58,37,4,1,1526,7.9,,,n,JAPAN,MIYAGI,OKAWA,34.833,139.067,49.40759973,,,,,,,,,4.1,,1,,,,,,,,,,,,,,
1923,9,1,2,58,37,4,1,1526,7.9,,,n,JAPAN,FUKUSHIMA,ONAHAMA,36.933,140.9,239.3537968,,,,,,,,,0.18,,2,,,,,,,,,,,,,,
1923,9,1,2,58,37,4,1,1526,7.9,,,n,JAPAN,OSAKA,OSAKA,34.667,135.5,368.784914,1,5,1,2,2,,,,0.33,,2,75,R,,,,,,,,,,,,
1923,9,1,2,58,37,4,1,1526,7.9,,,n,JAPAN,"IZU-OSHIMA, TOKYO",OSHIMA ISLAND,34.75,139.416,39.58001726,,,,,,,,,13,,1,,,,,,,,,,,,,,
1923,9,1,2,58,37,4,1,1526,7.9,,,n,JAPAN,MIE,OWASE,34.083,136.2,323.0570792,1,3,44,0,45,,,,0.54,,2,24,R,,,,,,,,,,,,
1923,9,1,2,58,37,4,1,1526,7.9,,,n,JAPAN,CHIBA,SAKATARU,,,,,,,,,,,,3,,1,,,,,,,,,,,,,,
1923,9,1,2,58,37,4,1,1526,7.9,,,n,JAPAN,AOMORI,SAME (AOMORI PREFECTURE),36.9,140.82,232.4912285,1,5,15,2,17,,,,0.4,,2,48,,,,,,,,,,,,,
1923,9,1,2,58,37,4,1,1526,7.9,,,n,JAPAN,SHIZUOKA,SHIMIZU,35.02,138.48,93.46782618,1,3,17,0,18,,,,,,,,,,,,,,,,,,,,
1923,9,1,2,58,37,4,1,1526,7.9,,,n,JAPAN,SHIZUOKA,SHIMODA,34.667,138.95,69.53767259,,,,,,,,,2.5,,1,,,,,,,,,,3,,3,,
1923,9,1,2,58,37,4,1,1526,7.9,,,n,JAPAN,SHIZUOKA,SHIMOTAGA NIIKAMA,35.046089,139.073589,39.34883181,,,,,,,,,7.2,,1,,,,,,,,,,1,,,,
1923,9,1,2,58,37,4,1,1526,7.9,,,n,JAPAN,SHIZUOKA,SHIRAHAMA,34.697,138.974,65.65197583,,,,,,,,,3,,1,,,,,,,,,,,,,,
1923,9,1,2,58,37,4,1,1526,7.9,,,n,JAPAN,SHIZUOKA,SHIROTA,,,,,,,,,,,,3.6,,1,,,,,,,,,,,,,,
1923,9,1,2,58,37,4,1,1526,7.9,,,n,JAPAN,TOKYO,SIBAURA,35.633,139.75,63.349178,1,3,31,0,32,,,,0.79,,2,,,,,,,,,,,,,,
1923,9,1,2,58,37,4,1,1526,7.9,,,n,JAPAN,FUKUSHIMA,SIMODA,36.9,140.82,232.4912285,,,,,,,,,3,,1,,,,,,,,,,,,,,
1923,9,1,2,58,37,4,1,1526,7.9,,,n,JAPAN,SHIZUOKA,SOTOURA,34.67,138.98,67.344517,,,,,,,,,6,,1,,,,2,,,,,,2,,,,
1923,9,1,2,58,37,4,1,1526,7.9,,,n,JAPAN,SHIZUOKA,SUNOSAKI,34.57,139.76,63.42453689,,,,,,,,,7,,1,,,,,,,,,,,,,,
1923,9,1,2,58,37,4,1,1526,7.9,,,n,JAPAN,SHIZUOKA,SUZAKI,34.65,138.967,69.76282956,,,,,,,,,8.1,,1,,,,,,,,,,,,,,
1923,9,1,2,58,37,4,1,1526,7.9,,,n,JAPAN,,TAKAGAMI,,,,,,,,,,,,1.5,,1,,,,,,,,,,,,,,
1923,9,1,2,58,37,4,1,1526,7.9,,,n,JAPAN,GUMMA,TAKASAKI,36.33,139,143.7764781,,,,,,,,,3,,1,,,,,,,,,,,,,,
1923,9,1,2,58,37,4,1,1526,7.9,,,n,JAPAN,CHIBA,TATEYAMA,34.983,139.85,34.4718482,,,,,,,,,1.8,,1,,,,,,,,,,,,,,
1923,9,1,2,58,37,4,1,1526,7.9,,,n,JAPAN,MIE,TOBA,34.483,136.817,254.8977374,1,4,,1,0,,,,0.6,,2,,,,,,,,,,,,,,
1923,9,1,2,58,37,4,1,1526,7.9,,,n,JAPAN,CHIBA,TOGAWA,35.7,140.85,139.5366654,,,,,,,,,1.5,,1,,,,,,,,,,,,,,
1923,9,1,2,58,37,4,1,1526,7.9,,,n,JAPAN,TOKYO,TOKYO BAY,35.65,139.8,66.83350916,,,,,,,,,1.5,,1,,,,,,,,,,,,,,
1923,9,1,2,58,37,4,1,1526,7.9,,,n,JAPAN,TSHIBA,TOMIURA,35.05,139.83,30.60447359,,,,,,,,,2.8,,1,,,,,,,,,,,,,,
1923,9,1,2,58,37,4,1,1526,7.9,,,n,JAPAN,NIIGATA,TOYOOKA,35.53,134.78,431.8226719,,,,,,,,,1.7,,1,,,,,,,,,,,,,,
1923,9,1,2,58,37,4,1,1526,7.9,,,n,JAPAN,,TSUKUI,,,,,,,,,,,,1.8,,1,,,,,,,,,,,,,,
1923,9,1,2,58,37,4,1,1526,7.9,,,n,JAPAN,MIYAZAKI,TSURUSHIMA,31.917,131.417,829.4845528,1,4,40,1,42,,,,0.15,,2,60,,,,,,,,,,,,,
1923,9,1,2,58,37,4,1,1526,7.9,,,n,JAPAN,KOCHI,URADO,33.49,133.567,574.5579607,1,4,18,1,20,,,,0.25,,2,60,R,,,,,,,,,,,,
1923,9,1,2,58,37,4,1,1526,7.9,,,n,JAPAN,TOKYO,URAYASU,35.671,139.889,72.54320167,,,,,,,,,0.3,,1,,,,,,,,,,,,,,
1923,9,1,2,58,37,4,1,1526,7.9,,,n,JAPAN,SHIZUOKA,USAMI,35.02,139.05,41.99813347,,,,,,,,,7.5,,1,,,,,,,,,,,,,,
1923,9,1,2,58,37,4,1,1526,7.9,,,n,JAPAN,CHIBA,WADA,35.54,140.02,67.96187998,,,,,,,,,2,,1,,,,,,,,,,,,,,
1923,9,1,2,58,37,4,1,1526,7.9,,,n,JAPAN,SHIZUOKA,WADAKI,35.04,139.09,37.98402513,,,,,,,,,4.5,,1,,,,,,,,,,,,,,
1923,9,1,2,58,37,4,1,1526,7.9,,,n,JAPAN,KANAGAWA,YOKOSUKA,35.3,139.65,26.05638636,1,3,1,0,2,,,,1.7,,2,24,,,,,,,,,,,,,
1923,9,1,2,58,37,4,1,1526,7.9,,,n,JAPAN,KANAGAWA,YUIGAHAMA,35.283,139.567,21.19992894,,,,,,,,,6,,1,,,100,2,,,,,,3,,3,,
1923,9,1,2,58,37,4,1,1526,7.9,,,n,JAPAN,KANAGAWA,ZUSHI,35.23,139.65,19.86866768,,,,,,,,,5,,1,,,,,,,,,,,,,,
1923,9,1,2,58,37,4,1,1526,7.9,,,n,NEW ZEALAND,WELLINGTON,"LAMBTON HARBOUR, WELLINGTON",-41.29,174.78,9195.036612,4,,,,,,,,0.1,,1,,,,,,,,,,,,,,
1923,9,1,2,58,37,4,1,1526,7.9,,,n,JAPAN,TSHIBA,NOJIMA,34.8,139.88,48.08847826,,,,,,,,,1.5,,2,,,,,,,,,,,,,,
1923,9,1,2,58,37,4,1,1526,7.9,,,n,CANADA,BC,"TOFINO (CLAYOQUOT),BRITISH COLUMBIA",49.153,-125.913,7458.109263,1,16,16,13,17,1,17,5,0.04,,2,15,F,,,,,,,,,,,,
1923,9,1,2,58,37,4,1,1526,7.9,,,n,JAPAN,CHIBA,AINOHAMA,34.917,139.817,35.34727516,,,,,,,,,10.3,,1,,,,,,,,,,2,,2,,
1923,9,1,2,58,37,4,1,1526,7.9,,,n,JAPAN,MIYAGI,URATO,38.317,141.05,382.901892,,,,,,,,,0.21,,2,,,,,,,,,,,,,,
1923,9,1,2,58,37,4,1,1526,7.9,,,n,JAPAN,CHIBA,HARAOKA,35.05,139.833,30.8735955,,,,,,,,,1.3,,1,,,,,,,,,,,,,,
1923,9,1,2,58,37,4,1,1526,7.9,,,n,JAPAN,,MINATOMACHI,,,,1,3,51,0,52,,,,0.3,,2,80,,,,,,,,,,,,,
1923,9,1,2,58,37,4,1,1526,7.9,,,n,JAPAN,,YOSOHAMA,,,,,,,0,52,,,,0.3,,2,80,,,,,,,,,,,,,
1923,9,1,2,58,37,4,1,1526,7.9,,,n,JAPAN,CHIBA,CHIBA,35.567,140.05,72.00587662,,,,0,27,,,,0.75,,2,80,,,,,,,,,,,,,
1923,9,1,2,58,37,4,1,1526,7.9,,,n,JAPAN,YAMAGUCHI,FUKUGAWA,34.067,131.733,721.5672829,,,,0,42,,,,0.6,,2,42,,,,,,,,,,,,,
1923,9,1,2,58,37,4,1,1526,7.9,,,n,JAPAN,,MIKITA,,,,1,4,28,1,30,,,,0.4,,2,45,R,,,,,,,,,,,,
1923,9,1,2,58,37,4,1,1526,7.9,,,n,JAPAN,,NEBUKAWA,35.2,139.1333,35.20779568,,,,,,,,,,,1,,,200,3,,,,,,2,,,,
1923,9,1,2,58,37,4,1,1526,7.9,,,n,JAPAN,KANAGAWA,AKIYA,35.237,139.602,17.81472002,,,,,,,,,3,,1,,,,,,,,,,,,,,
1923,9,1,2,58,37,4,1,1526,7.9,,,n,JAPAN,"BONIN IS, TOKYO","FUTAMI BAY, CHICHIJIMA ISLAND",27.0939,142.195,924.0185795,,,,,,,,,0.9,,1,,,,,,,,,,,,,,
1923,9,1,2,58,37,4,1,1526,7.9,,,n,JAPAN,SHIZUOKA,FUTO,34.908,139.13,39.93070261,,,,,,,,,0.6,,1,,,,,,,,,,,,,,
1923,9,1,2,58,37,4,1,1526,7.9,,,n,JAPAN,OITA,HIJI,33.368,131.53,758.7541386,,,,,,,,,0.6,,1,,,,,,,,,,,,,,
1923,9,1,2,58,37,4,1,1526,7.9,,,n,JAPAN,KANAGAWA,HORIUCHI,35.276,139.572,20.59790094,,,,,,,,,3,,1,,,,,,,,,,,,,,
1923,9,1,2,58,37,4,1,1526,7.9,,,n,JAPAN,KANAGAWA,IJIRI,,,,,,,,,,,,1.5,,1,,,,,,,,,,,,,,
1923,9,1,2,58,37,4,1,1526,7.9,,,n,JAPAN,SHIZUOKA,INATORI,34.77,139.0414,55.63906294,,,,,,,,,6,,1,,,,,,,,,,,,,,
1923,9,1,2,58,37,4,1,1526,7.9,,,n,JAPAN,TOKUSHIMA,KAWAUCHI,34.096,134.58,464.8058872,,,,,,,,,0.5,,1,,,,,,,,,,,,,,
1923,9,1,2,58,37,4,1,1526,7.9,,,n,JAPAN,KANAGAWA,KOAJIRO,35.156,139.633,13.62171792,,,,,,,,,1.8,,1,,,,,,,,,,,,,,
1923,9,1,2,58,37,4,1,1526,7.9,,,n,JAPAN,CHIBA,MATSUBE,35.146,140.291,72.2809132,,,,,,,,,1.5,,1,,,,,,,,,,,,,,
1923,9,1,2,58,37,4,1,1526,7.9,,,n,JAPAN,OITA,MIURA,,,,,,,,,,,,0.2,,1,,,,,,,,,,,,,,
1923,9,1,2,58,37,4,1,1526,7.9,,,n,JAPAN,TOKUSHIMA,MUYA (NARUTO),34.183,134.617,459.0533271,,,,,,,,,0.6,,1,,,,,,,,,,,,,,
1923,9,1,2,58,37,4,1,1526,7.9,,,n,JAPAN,KANAGAWA,NAGAI,35.209,139.614,15.94150207,,,,,,,,,1.2,,1,,,,,,,,,,,,,,
1923,9,1,2,58,37,4,1,1526,7.9,,,n,JAPAN,KANAGAWA,NISHIURA,,,,,,,,,,,,1.8,,1,,,,,,,,,,,,,,
1923,9,1,2,58,37,4,1,1526,7.9,,,n,JAPAN,OITA,OITA,33.24,131.61,755.905193,,,,,,,,,0.6,,1,,,,,,,,,,,,,,
1923,9,1,2,58,37,4,1,1526,7.9,,,n,JAPAN,KANAGAWA,OTSU,35.26,139.694,25.04722711,,,,,,,,,1.2,,1,,,,,,,,,,,,,,
1923,9,1,2,58,37,4,1,1526,7.9,,,n,JAPAN,,NORTH COAST SAGAMI BAY,35.32,139.35,27.96933765,,,,,,,,,9,,1,,,,,,,,,,,,,,
1923,9,1,2,58,37,4,1,1526,7.9,,,n,JAPAN,TOKUSHIMA,COAST OF SHIGA,,,,,,,,,,,,0.9,,1,,,,,,,,,,,,,,
1923,9,1,2,58,37,4,1,1526,7.9,,,n,JAPAN,CHIBA,SHIRAHAMA,34.906,139.9,42.38490017,,,,,,,,,1.5,,1,,,,,,,,,,,,,,
1923,9,1,2,58,37,4,1,1526,7.9,,,n,JAPAN,KANAGAWA,URAGA,35.23,139.72,24.69280392,,,,,,,,,0.8,,1,,,,,,,,,,,,,,
1923,9,1,2,58,37,4,1,1526,7.9,,,n,JAPAN,KANAGAWA,DJOGASHIMA ISLAND,35.132,139.619,11.41408967,,,,,,,,,,,1,,,,,,,,,,,,,,
1923,9,1,2,58,37,4,1,1526,7.9,,,n,JAPAN,SHIZUOKA,FUKUURA,35.3497,139.6487,30.83355739,,,,,,,,,,,1,,,,,,,,,,,,,,
1923,9,1,2,58,37,4,1,1526,7.9,,,n,JAPAN,"BONIN IS, TOKYO",FUTAMI PORT,27.1,142.183,923.05016,,,,,,,,,,,1,,,,,,,,,,,,,,
1923,9,1,2,58,37,4,1,1526,7.9,,,n,JAPAN,"BONIN IS, TOKYO",HAHAJIMA ISLAND,26.7,142.13,964.5191468,,,,,,,,,,,1,,,,,,,,,,,,,,
1923,9,1,2,58,37,4,1,1526,7.9,,,n,JAPAN,CHIBA,HEISAURA GULF,34.938,139.82,34.29234595,,,,,,,,,,,1,,,,,,,,,,,,,,
1923,9,1,2,58,37,4,1,1526,7.9,,,n,JAPAN,OITA,HIMA ISLAND,,,,,,,,,,,,,,1,,,,,,,,,,,,,,
1923,9,1,2,58,37,4,1,1526,7.9,,,n,JAPAN,KANAGAWA,HINODE,35.531,139.742,52.6387188,,,,,,,,,,,1,,,,,,,,,,,,,,
1923,9,1,2,58,37,4,1,1526,7.9,,,n,JAPAN,KOCHI,KOCHI,33.55,133.55,573.8336622,,,,,,,,,,,1,,,,,,,,,,,,,,
1923,9,1,2,58,37,4,1,1526,7.9,,,n,JAPAN,KANAGAWA,KOTSUBO,35.296,139.558,22.37736606,,,,,,,,,,,1,,,,,,,,,,,,,,
1923,9,1,2,58,37,4,1,1526,7.9,,,n,JAPAN,KANAGAWA,ODAWARA,35.25,139.16,35.15947774,,,,,,,,,,,1,,,,,,,,,,,,,,
1923,9,1,2,58,37,4,1,1526,7.9,,,n,JAPAN,TOKUSHIMA,OKAZAKI,34.183,134.621,458.6958284,,,,,,,,,,,1,,,,,,,,,,,,,,
1923,9,1,2,58,37,4,1,1526,7.9,,,n,JAPAN,OITA,TAKATA,33.55,131.45,760.3017513,,,,,,,,,,,1,,,,,,,,,,,,,,
1923,9,1,2,58,37,4,1,1526,7.9,,,n,JAPAN,RYUKYU ISLANDS,TANEGASHIMA ISLAND,30.8,131.07,920.7464095,,,,,,,,,,,1,,,,,,,,,,,,,,
1923,9,1,2,58,37,4,1,1526,7.9,,,n,JAPAN,CHIBA,TOMISAKI,34.9213,139.8265,35.7935113,,,,,,,,,,,1,,,,,,,,,,,,,,
1923,9,1,2,58,37,4,1,1526,7.9,,,n,JAPAN,CHIBA,TOYOOKO,,,,,,,,,,,,,,1,,,,,,,,,,,,,,
1923,9,1,2,58,37,4,1,1526,7.9,,,n,JAPAN,KANAGAWA,SHICHIRIHAMA,35.305,139.51,22.76180187,,,,,,,,,,,1,,,,,,,,,,,,,,
1923,9,1,2,58,37,4,1,1526,7.9,,,n,JAPAN,KANAGAWA,ABURATSUBO,35.158,139.62,12.68980117,,,,,,,,,1.8,,1,,,,,,,,,,,,,,
1923,9,1,2,58,37,4,1,1526,7.9,,,n,JAPAN,SHIZUOKA,YOSHIHAMA,,,,,,,,,,,,,,1,,,,,,,,,,,,,,
1923,9,2,2,46,40,4,1,1527,7.7,,,n,JAPAN,SHIZUOKA,ATAMI,35.089,139.069,105.3606271,,,,,,,,,,,1,,,,,,,,,,,,,,
1923,9,2,2,46,40,4,1,1527,7.7,,,n,JAPAN,SHIZUOKA,ITO,34.97,139.07,103.5282439,,,,,,,,,,,1,,,,,,,,,,,,,,
1923,9,2,2,46,40,4,1,1527,7.7,,,n,JAPAN,KANAGAWA,KAMAKURA,35.309,139.55,74.63807598,,,,,,,,,,,1,,,,,,,,,,,,,,
1923,9,2,2,46,40,4,1,1527,7.7,,,n,JAPAN,CHIBA,KATSUURA,35.133,140.25,26.24895788,,,,,,,,,,,1,,,,,,,,,,,,,,
1923,9,2,2,46,40,4,1,1527,7.7,,,n,JAPAN,SHIZUOKA,SUNOSAKI,34.57,139.76,54.44213797,,,,,,,,,0.3,,1,,,,,,,,,,,,,,
1923,9,2,2,46,40,4,1,1527,7.7,,,n,CANADA,BC,"TOFINO (CLAYOQUOT),BRITISH COLUMBIA",49.153,-125.913,7428.361686,2,15,47,13,0,2,15,50,0.05,,2,18,F,,,,,,,,,,,,
1923,11,2,21,8,11.5,3,1,1528,7.1,,,n,PAPUA NEW GUINEA,EAST NEW BRITAIN,"RABAUL (BLANCHE BAY), NEW BRITAIN",-4.22,152.18,232.7259764,,,,,,,,,,,1,,,,,,,,,,,,,,
1923,11,2,21,8,11.5,3,1,1528,7.1,,,n,PAPUA NEW GUINEA,EAST NEW BRITAIN,"SIMPSON HARBOUR, NEW BRITAIN",-4.21,152.17,234.0426567,,,,,,,,,,,1,,,,,,,,,,,,,,
1923,11,4,0,4,47.8,1,1,1529,7.1,,,n,PAPUA NEW GUINEA,EAST NEW BRITAIN,"RABAUL, NEW BRITAIN",-4.22,152.18,108.7725276,,,,,,,,,,,1,,,,,,,,,,,,,,
1923,,,,,,2,4,5720,6.1,7444,,n,VIETNAM,,NHA TRANG,12.22,109.2,228.9933585,,,,,,,,,,6,1,,,,,,,,,,1,,,,
1923,,,,,,2,4,5720,6.1,7444,,n,VIETNAM,,MUI NE,10.93,108.29,116.4954958,,,,,,,,,,,5,,,,,,,,,,,,,,
1924,3,4,10,7,52.2,3,1,3746,6.7,,,n,COSTA RICA,,PUNTARENAS,9.967,-84.833,54.62398328,,,,,,,,,,,1,,,,,,,,,,,,,,
1924,3,15,10,31,24.1,0,1,1531,6.8,,,n,RUSSIA,,UGLEGORSK RIVER,49.1,142.05,29.50380497,,,,,,,,,,,1,,,,,,,,,,,,,,
1924,4,14,16,20,23,4,3,1536,8.3,,,n,PHILIPPINES,,MATI MINDANAO,6.953,126.216,59.12341946,,,,,,,,,,,1,,,,,,,,,,,,,,
1924,4,14,16,20,23,4,3,1536,8.3,,,n,PHILIPPINES,,BINUANGAN,7.36677,125.85,119.7840073,,,,,,,,,,,1,,,,,,,,,,,,,,
1924,4,14,16,20,23,4,3,1536,8.3,,,n,PHILIPPINES,,CARAGA BAY,7.327,126.564,91.73133252,,,,,,,,,,,1,,,,,,,,,,,,,,
1924,5,6,16,9,20,4,3,1538,6.5,,,n,PHILIPPINES,,"AGNO, LUZON ISLAND",16.1194,119.7992,192.9712004,,,,,,,,,,,1,,,,,,,,,,1,,,,
1924,6,26,1,37,34,3,1,1543,7.8,,,n,AUSTRALIA,,SYDNEY,-33.85,151.233,2508.300675,,,,,,,,,,,2,,,,,,,,,,,,,,
1924,8,30,3,4,7,2,1,1546,7.3,,,n,PHILIPPINES,,BISLIG,8.2153,126.3164,37.42187022,,,,,,,,,,,1,,,,,,,,,,,,,,
1924,8,30,3,4,7,2,1,1546,7.3,,,n,PHILIPPINES,,HINATUAN,8.37,126.3342,23.23984629,,,,,,,,,,,1,,,,,,,,,,,,,,
1925,2,23,23,53,36,3,3,1550,6,,,n,USA,AK,"VALDEZ, AK",61.13,-146.33,127.2004393,,,,,,,,,,,1,,,,,,,,,,1,,,,
1925,5,5,10,6,6,2,1,1554,6.8,,,n,PHILIPPINES,,SOUTH COAST OF NEGROS ISLAND,9.04,123.01,44.58440537,,,,,,,,,,,1,,,,,,,,,,,,,,
1925,5,25,3,43,6,2,1,1556,6.3,,,n,PHILIPPINES,,"TUGDAN, TABLAS ISLAND",12.305,122.081,11.79806656,,,,,,,,,,,1,,,,,,,,,,,,,,
1925,5,25,3,43,6,2,1,1556,6.3,,,n,PHILIPPINES,,ROMBLON ISLAND,12.5,122.25,36.98051546,,,,,,,,,,,1,,,,,,,,,,,,,,
1925,11,13,12,14,45,2,1,1559,7.3,,,n,PHILIPPINES,,BATAG ISLAND,12.667,124.367,77.96836118,,,,,,,,,,,1,,,,2,,,,,,2,,3,,3
1925,11,13,12,14,45,2,1,1559,7.3,,,n,PHILIPPINES,,MANILA,14.604,120.982,469.27667,,,,,,,,,,,1,,,,,,,,,,,,,,
1925,11,16,11,54,54,1,1,1560,7,,,n,MEXICO,GUERRERO,ZIHUATANEJO,17.667,-101.642,574.5898855,,,,,,,,,10,,1,,,,,,,,,,,,,,
1926,1,25,0,36,25,3,1,1563,7.5,,,y,USA,HI,"HAWAII ISLAND, HI",,,,,,,,,,,,,,1,,,,,,,,,,,,,,
1926,6,28,3,23,25,0,1,1567,5.8,,,n,INDONESIA,WEST SUMATRA,SUDJUNDJUNG,-0.7,100.6,0,,,,,,,,,,,7,,,,,,,,3,,2,,,,
1926,8,17,1,42,,2,3,3419,5.3,,,n,ITALY,,"MALFA (GALERA), SALINA IS.",38.57999999,14.835,1.453581144,,,,,,,,,,,1,,F,,,,,,,,,,,,
1926,8,17,1,42,,2,3,3419,5.3,,,n,ITALY,,"CAPO FARO, SALINA IS.",38.57999999,14.872,3.692306176,,,,,,,,,,,1,,F,,,,,,,,,,,,
1926,8,31,10,40,9.7,1,1,1570,5.8,,,n,AZORES (PORTUGAL),,"ILHA DE FAYAL, AZORES",38.57,-28.7,66.96340882,,,,,,,,,0.3,,1,,,,,,,,,,,,,,
1926,9,16,17,59,15,4,1,1572,6.9,,,n,SOLOMON ISLANDS,,"CAPE ESPERENSE, GUADALCANAL",-9.25,159.7,50.93455367,,,,,,,,,,,1,,,,,,,,,,,,,,
1926,9,16,17,59,15,4,1,1572,6.9,,,n,SOLOMON ISLANDS,,"OVI HARBOR, KOKOMARUKI, GUADALCANAL",-9.56,159.633,17.76423888,,,,,,,,,2,,1,,,,,,,,,,1,,,,
1926,12,9,,,,2,1,1573,6,,,n,CHILE,ATACAMA,CALDERA,-27.067,-70.833,104.6953667,,,,,,,,,,,1,,,,,,,,,,,,,,
1926,12,9,,,,2,1,1573,6,,,n,CHILE,ATACAMA,CHANARAL,-26.38,-70.67,182.4601828,,,,,,,,,,,1,,,,,,,,,,,,,,
1926,12,9,,,,2,1,1573,6,,,n,CHILE,ATACAMA,HUASCO,-28.467,-71.22,56.07821661,,,,,,,,,,,1,,,,,,,,,,,,,,
1927,1,1,8,17,,1,9,1575,5.7,,,m,USA,CA,"SAN PEDRO, CA",33.707,-118.273,291.3924988,,,,,,,,,,,1,,,1,1,,,,,3,2,,,,
1927,3,7,9,27,,4,3,1576,7.6,,,n,JAPAN,KYOTO,AMINO,35.68,135.03,10.90791068,,,,,,,,,0.5,,1,,,,,,,,,,,,,,
1927,3,7,9,27,,4,3,1576,7.6,,,n,JAPAN,KYOTO,HAMAZUME,,,,,,,,,,,,0.6,,1,,,,,,,,,,,,,,
1927,3,7,9,27,,4,3,1576,7.6,,,n,JAPAN,SHIMANE,ISO,,,,,,,,,,,,0.75,,1,,,,,,,,,,,,,,
1927,3,7,9,27,,4,3,1576,7.6,,,n,JAPAN,,KAKEZU,,,,,,,,,,,,0.75,,1,,,,,,,,,,,,,,
1927,3,7,9,27,,4,3,1576,7.6,,,n,JAPAN,,KAZURANO,,,,,,,,,,,,0.75,,1,,,,,,,,,,,,,,
1927,3,7,9,27,,4,3,1576,7.6,,,n,JAPAN,,KYUSO,,,,,,,,,,,,0.75,,1,,,,,,,,,,,,,,
1927,3,7,9,27,,4,3,1576,7.6,,,n,JAPAN,IWATE,MINATO,34.63,138.91,363.5802475,,,,,,,,,0.6,,1,,,,,,,,,,,,,,
1927,3,7,9,27,,4,3,1576,7.6,,,n,JAPAN,,MIZU,,,,,,,3,30,,,,0.6,,1,,,,,,,,,,,,,,
1927,3,7,9,27,,4,3,1576,7.6,,,n,JAPAN,IWATE,NAKANO,36.18,133.2,183.2182262,,,,,,,,,0.6,,1,,,,,,,,,,,,,,
1927,3,7,9,27,,4,3,1576,7.6,,,n,JAPAN,"IZU-OSHIMA, TOKYO",OSHIMA,34.7,139.4,404.304483,,,,,,,,,0.15,,1,,,,,,,,,,,,,,
1927,3,7,9,27,,4,3,1576,7.6,,,n,JAPAN,,TAIZA (TANGO),,,,,,,,,,,,11.3,,1,,,,,,,,,,,,,,
1927,3,7,9,27,,4,3,1576,7.6,,,n,JAPAN,KYOTO,TAKENO,35.75,135.1,16.64294815,,,,,,,,,0.45,,1,,,,,,,,,,,,,,
1927,3,7,9,27,,4,3,1576,7.6,,,n,JAPAN,,TAKUHI,,,,,,,,,,,,0.75,,1,,,,,,,,,,,,,,
1927,3,7,9,27,,4,3,1576,7.6,,,n,JAPAN,HOKKAIDO,TOMARI,41.08,141.42,821.2936571,,,,,,,,,0.6,,1,,,,,,,,,,,,,,
1927,3,7,9,27,,4,3,1576,7.6,,,n,JAPAN,HYOGO,TSUIYAMA,35.65,134.833,24.81519983,,,,0,10,,,,0.15,,2,12,,,,,,,,,,,,,
1927,3,7,9,27,,4,3,1576,7.6,,,n,JAPAN,HYOGO,TSUIYAMA,35.65,134.833,24.81519983,,,,,,,,,0.3,,1,,,,,,,,,,,,,,
1927,3,7,9,27,,4,3,1576,7.6,,,n,JAPAN,KYOTO,SHIOFUKI,35.67,134.97,14.1057712,,,,,,,,,,,1,,,,,,,,,,,,,,
1927,8,5,21,13,1.1,4,1,1578,6.9,,,n,JAPAN,IWATE,MIYAKO,39.65,141.983,194.2752347,6,21,52,0,40,,,,,,2,,,,,,,,,,,,,,
1927,8,5,21,13,1.1,4,1,1578,6.9,,,n,JAPAN,MIYAGI,HANABUCHI,38.267,141.033,94.11018953,,,,,,,,,0.08,,2,25,F,,,,,,,,,,,,
1927,8,5,21,13,1.1,4,1,1578,6.9,,,n,JAPAN,MIYAGI,ISHINOMAKI,38.417,141.267,86.14069162,5,21,54,0,42,,,,0.03,,2,18,F,,,,,,,,,,,,
1927,8,5,21,13,1.1,4,1,1578,6.9,,,n,JAPAN,MIYAGI,TSUKIHAMA,38.567,141.45,88.31941658,5,21,46,0,34,,,,0.03,,2,20,F,,,,,,,,,,,,
1927,8,5,21,13,1.1,4,1,1578,6.9,,,n,JAPAN,MIYAGI,AYUKAWA,38.3,141.5,62.40729412,,,,0,30,,,,,,2,,,,,,,,,,,,,,
1927,8,18,19,28,,4,1,1579,6.4,,,n,JAPAN,CHIBA,CHOSHI,35.75,140.867,200.6781616,18,1,2,0,34,,,,0.18,,2,5,,,,,,,,,,,,,
1927,8,18,19,28,,4,1,1579,6.4,,,n,JAPAN,CHIBA,MERA,34.9189,139.825,214.9449528,,,,,,,,,0.15,,2,5,,,,,,,,,,,,,
